[
	{
		"city":"杭州",
		"ctcss":"T88.5",
		"downFreq":"144.9000",
		"lat":"30.254697",
		"lon":"120.230979",
		"name":"杭州144.9",
		"note":"20140815",
		"state":"浙江",
		"upFreq":"144.6000"
	},
	{
		"city":"杭州",
		"ctcss":"T88.5",
		"downFreq":"439.8500",
		"lat":"30.251761",
		"lon":"120.203650",
		"name":"杭州439.85",
		"note":"20140815",
		"state":"浙江",
		"upFreq":"430.8500"
	},
	{
		"city":"上虞",
		"ctcss":"T88.5",
		"downFreq":"439.5875",
		"lat":"30.001460",
		"lon":"120.902473",
		"name":"上虞439.5875",
		"note":"20140815",
		"state":"浙江",
		"upFreq":"430.5875"
	},
	{
		"city":"萧山",
		"ctcss":"T107.2",
		"downFreq":"439.5750",
		"lat":"30.150920",
		"lon":"120.390496",
		"name":"萧山439.575",
		"note":"20140815",
		"state":"浙江",
		"upFreq":"434.5750"
	},
	{
		"city":"临平",
		"ctcss":"T88.5",
		"downFreq":"439.4875",
		"lat":"30.407397",
		"lon":"120.286147",
		"name":"临平439.4875",
		"note":"20140815",
		"state":"浙江",
		"upFreq":"431.4875"
	},
	{
		"city":"湖州",
		"ctcss":"T151.4",
		"downFreq":"439.5125",
		"lat":"30.860389",
		"lon":"120.150476",
		"name":"湖州439.5125",
		"note":"20140815",
		"state":"浙江",
		"upFreq":"431.9125"
	},
	{
		"city":"安吉",
		"ctcss":"T71.9",
		"downFreq":"439.6500",
		"lat":"30.617682",
		"lon":"119.568712",
		"name":"安吉439.65",
		"note":"20140815",
		"state":"浙江",
		"upFreq":"431.6500"
	},
	{
		"city":"宁波",
		"ctcss":"T88.5",
		"downFreq":"147.9350",
		"lat":"29.888827",
		"lon":"121.594699",
		"name":"宁波147.935",
		"note":"20140815",
		"state":"浙江",
		"upFreq":"144.1350"
	},
	{
		"city":"宁波",
		"ctcss":"T88.5",
		"downFreq":"438.3750",
		"lat":"29.886581",
		"lon":"121.603110",
		"name":"宁波438.375",
		"note":"20140815",
		"state":"浙江",
		"upFreq":"432.1750"
	},
	{
		"city":"乐清",
		"ctcss":"T88.5",
		"downFreq":"145.2200",
		"lat":"28.245182",
		"lon":"121.037926",
		"name":"乐清145.22",
		"note":"20140815",
		"state":"浙江",
		"upFreq":"144.6200"
	},
	{
		"city":"慈溪",
		"ctcss":"T88.5",
		"downFreq":"438.3125",
		"lat":"30.193547",
		"lon":"121.323857",
		"name":"慈溪438.3125",
		"note":"20140823",
		"state":"浙江",
		"upFreq":"430.3125"
	},
	{
		"city":"慈溪",
		"ctcss":"T88.5",
		"downFreq":"439.3500",
		"lat":"30.177728",
		"lon":"121.319471",
		"name":"慈溪439.35",
		"note":"20140815",
		"state":"浙江",
		"upFreq":"431.3500"
	},
	{
		"city":"慈溪",
		"ctcss":"T88.5",
		"downFreq":"438.6250",
		"lat":"30.171342",
		"lon":"121.358424",
		"name":"慈溪438.625",
		"note":"20140815",
		"state":"浙江",
		"upFreq":"433.6250"
	},
	{
		"city":"余姚",
		"ctcss":"T88.5",
		"downFreq":"439.5500",
		"lat":"30.015228",
		"lon":"121.160226",
		"name":"余姚439.55",
		"note":"20140815",
		"state":"浙江",
		"upFreq":"430.5500"
	},
	{
		"city":"海宁",
		"ctcss":"T88.5",
		"downFreq":"145.3000",
		"lat":"30.431211",
		"lon":"120.613395",
		"name":"海宁145.3",
		"note":"20140815",
		"state":"浙江",
		"upFreq":"144.7000"
	},
	{
		"city":"海盐",
		"ctcss":"T88.5",
		"downFreq":"439.1875",
		"lat":"30.509342",
		"lon":"120.874458",
		"name":"海盐439.1875",
		"note":"20140815",
		"state":"浙江",
		"upFreq":"431.1875"
	},
	{
		"city":"嘉善",
		"ctcss":"T88.5",
		"downFreq":"145.3200",
		"lat":"30.893476",
		"lon":"120.927973",
		"name":"嘉善145.32",
		"note":"20140815",
		"state":"浙江",
		"upFreq":"144.7200"
	},
	{
		"city":"绍兴",
		"ctcss":"T118.8",
		"downFreq":"439.7750",
		"lat":"29.995869",
		"lon":"120.593229",
		"name":"绍兴439.775",
		"note":"20140815",
		"state":"浙江",
		"upFreq":"431.7750"
	},
	{
		"city":"嵊州",
		"ctcss":"T88.5",
		"downFreq":"439.6000",
		"lat":"29.581347",
		"lon":"120.746832",
		"name":"嵊州439.6",
		"note":"20140815",
		"state":"浙江",
		"upFreq":"431.6000"
	},
	{
		"city":"路桥",
		"ctcss":"T88.5",
		"downFreq":"438.8000",
		"lat":"28.544796",
		"lon":"121.474696",
		"name":"路桥438.8",
		"note":"20140815",
		"state":"浙江",
		"upFreq":"433.8000"
	},
	{
		"city":"路桥",
		"ctcss":"T88.5",
		"downFreq":"439.2000",
		"lat":"28.557504",
		"lon":"121.437506",
		"name":"路桥439.2",
		"note":"20140815",
		"state":"浙江",
		"upFreq":"434.2000"
	},
	{
		"city":"椒江",
		"ctcss":"T88.5",
		"downFreq":"439.7500",
		"lat":"28.651092",
		"lon":"121.468534",
		"name":"椒江439.75",
		"note":"20140815",
		"state":"浙江",
		"upFreq":"433.5500"
	},
	{
		"city":"天台",
		"ctcss":"T88.5",
		"downFreq":"439.8500",
		"lat":"29.158812",
		"lon":"121.009270",
		"name":"天台439.85",
		"note":"20140815",
		"state":"浙江",
		"upFreq":"434.8500"
	},
	{
		"city":"玉环",
		"ctcss":"T88.5",
		"downFreq":"438.7500",
		"lat":"28.194443",
		"lon":"121.281631",
		"name":"玉环438.75",
		"note":"20140815",
		"state":"浙江",
		"upFreq":"433.7500"
	},
	{
		"city":"黄岩",
		"ctcss":"T88.5",
		"downFreq":"439.8000",
		"lat":"28.598786",
		"lon":"121.076873",
		"name":"黄岩439.8",
		"note":"20140815",
		"state":"浙江",
		"upFreq":"434.8000"
	},
	{
		"city":"临海",
		"ctcss":"T88.5",
		"downFreq":"439.5000",
		"lat":"28.836221",
		"lon":"121.206393",
		"name":"临海439.5",
		"note":"20140815",
		"state":"浙江",
		"upFreq":"434.5000"
	},
	{
		"city":"温岭",
		"ctcss":"T88.5",
		"downFreq":"439.0000",
		"lat":"28.420245",
		"lon":"121.445049",
		"name":"温岭439",
		"note":"20140815",
		"state":"浙江",
		"upFreq":"434.0000"
	},
	{
		"city":"金华",
		"ctcss":"T88.5",
		"downFreq":"145.5800",
		"lat":"29.117750",
		"lon":"119.667579",
		"name":"金华145.58",
		"note":"20140815",
		"state":"浙江",
		"upFreq":"144.9800"
	},
	{
		"city":"义乌",
		"ctcss":"T88.5",
		"downFreq":"145.2600",
		"lat":"29.290324",
		"lon":"120.083396",
		"name":"义乌145.26",
		"note":"20140815",
		"state":"浙江",
		"upFreq":"144.6600"
	},
	{
		"city":"寿光",
		"ctcss":"T88.5",
		"downFreq":"439.3500",
		"lat":"37.022458",
		"lon":"118.835573",
		"name":"寿光439.35",
		"note":"20140820",
		"state":"山东",
		"upFreq":"431.3500"
	},
	{
		"city":"临沂",
		"ctcss":"T88.5",
		"downFreq":"439.7500",
		"lat":"35.063938",
		"lon":"118.337233",
		"name":"临沂439.75",
		"note":"20140815",
		"state":"山东",
		"upFreq":"434.7500"
	},
	{
		"city":"济宁旅游电台",
		"ctcss":"T88.5",
		"downFreq":"439.9250",
		"lat":"35.377220",
		"lon":"116.587531",
		"name":"济宁旅游电台439.925",
		"note":"20140815",
		"state":"山东",
		"upFreq":"434.9250"
	},
	{
		"city":"邹平",
		"ctcss":"T88.5",
		"downFreq":"438.8500",
		"lat":"36.948631",
		"lon":"117.661572",
		"name":"邹平438.85",
		"note":"20140815",
		"state":"山东",
		"upFreq":"433.8500"
	},
	{
		"city":"宁阳",
		"ctcss":"T88.5",
		"downFreq":"439.2000",
		"lat":"35.855753",
		"lon":"116.910785",
		"name":"宁阳439.2",
		"note":"20140815",
		"state":"山东",
		"upFreq":"434.2000"
	},
	{
		"city":"肥城",
		"ctcss":"T88.5",
		"downFreq":"439.8000",
		"lat":"36.095000",
		"lon":"116.746580",
		"name":"肥城439.8",
		"note":"20140815",
		"state":"山东",
		"upFreq":"434.8000"
	},
	{
		"city":"济南",
		"ctcss":"T88.5",
		"downFreq":"439.7500",
		"lat":"36.688356",
		"lon":"117.015955",
		"name":"济南439.75",
		"note":"20140815",
		"state":"山东",
		"upFreq":"434.7500"
	},
	{
		"city":"济南",
		"ctcss":"T71.9",
		"downFreq":"438.7000",
		"lat":"36.662987",
		"lon":"117.025245",
		"name":"济南438.7",
		"note":"20140815",
		"state":"山东",
		"upFreq":"433.7000"
	},
	{
		"city":"济南",
		"ctcss":"T88.5",
		"downFreq":"438.7750",
		"lat":"36.693720",
		"lon":"117.009333",
		"name":"济南438.775",
		"note":"20140815",
		"state":"山东",
		"upFreq":"433.7750"
	},
	{
		"city":"济宁",
		"ctcss":"T88.5",
		"downFreq":"438.7000",
		"lat":"35.390960",
		"lon":"116.576799",
		"name":"济宁438.7",
		"note":"20140815",
		"state":"山东",
		"upFreq":"433.7000"
	},
	{
		"city":"济宁",
		"ctcss":"T88.5",
		"downFreq":"439.9250",
		"lat":"35.409688",
		"lon":"116.615055",
		"name":"济宁439.925",
		"note":"20140815",
		"state":"山东",
		"upFreq":"434.9250"
	},
	{
		"city":"邹城",
		"ctcss":"T88.5",
		"downFreq":"439.9000",
		"lat":"35.362731",
		"lon":"117.112271",
		"name":"邹城439.9",
		"note":"20140828",
		"state":"山东",
		"upFreq":"434.9000"
	},
	{
		"city":"潍坊",
		"ctcss":"T88.5",
		"downFreq":"439.2750",
		"lat":"36.729093",
		"lon":"119.120294",
		"name":"潍坊439.275",
		"note":"20140815",
		"state":"山东",
		"upFreq":"434.2750"
	},
	{
		"city":"潍坊",
		"ctcss":"T88.5",
		"downFreq":"439.7500",
		"lat":"36.711892",
		"lon":"119.150634",
		"name":"潍坊439.75",
		"note":"20140815",
		"state":"山东",
		"upFreq":"434.7500"
	},
	{
		"city":"安丘",
		"ctcss":"T88.5",
		"downFreq":"439.6250",
		"lat":"36.329010",
		"lon":"119.170456",
		"name":"安丘439.625",
		"note":"20140815",
		"state":"山东",
		"upFreq":"434.6250"
	},
	{
		"city":"滨州",
		"ctcss":"T88.5",
		"downFreq":"439.3000",
		"lat":"37.402394",
		"lon":"117.962133",
		"name":"滨州439.3",
		"note":"20140815",
		"state":"山东",
		"upFreq":"434.3000"
	},
	{
		"city":"苍山",
		"ctcss":"T88.5",
		"downFreq":"439.6500",
		"lat":"34.860618",
		"lon":"117.991800",
		"name":"苍山439.65",
		"note":"20140815",
		"state":"山东",
		"upFreq":"429.6500"
	},
	{
		"city":"东营",
		"ctcss":"T88.5",
		"downFreq":"438.1000",
		"lat":"37.420632",
		"lon":"118.603424",
		"name":"东营438.1",
		"note":"20140815",
		"state":"山东",
		"upFreq":"433.1000"
	},
	{
		"city":"东营",
		"ctcss":"T88.5",
		"downFreq":"438.6750",
		"lat":"37.393816",
		"lon":"118.613946",
		"name":"东营438.675",
		"note":"20140815",
		"state":"山东",
		"upFreq":"433.6750"
	},
	{
		"city":"曲阜",
		"ctcss":"T88.5",
		"downFreq":"438.2000",
		"lat":"35.629845",
		"lon":"117.033517",
		"name":"曲阜438.2",
		"note":"20140815",
		"state":"山东",
		"upFreq":"433.2000"
	},
	{
		"city":"枣庄",
		"ctcss":"T88.5",
		"downFreq":"439.5500",
		"lat":"34.827103",
		"lon":"117.257204",
		"name":"枣庄439.55",
		"note":"20140815",
		"state":"山东",
		"upFreq":"434.5500"
	},
	{
		"city":"枣庄",
		"ctcss":"T88.5",
		"downFreq":"439.9000",
		"lat":"34.818995",
		"lon":"117.278881",
		"name":"枣庄439.9",
		"note":"20140815",
		"state":"山东",
		"upFreq":"434.9000"
	},
	{
		"city":"泰山",
		"ctcss":"T88.5",
		"downFreq":"439.8500",
		"lat":"36.226829",
		"lon":"117.174987",
		"name":"泰山439.85",
		"note":"20140815",
		"state":"山东",
		"upFreq":"434.8500"
	},
	{
		"city":"东平",
		"ctcss":"T88.5",
		"downFreq":"439.0000",
		"lat":"35.964240",
		"lon":"116.360056",
		"name":"东平439",
		"note":"20140815",
		"state":"山东",
		"upFreq":"434.0000"
	},
	{
		"city":"高密",
		"ctcss":"T88.5",
		"downFreq":"439.5250",
		"lat":"36.382907",
		"lon":"119.689210",
		"name":"高密439.525",
		"note":"20140815",
		"state":"山东",
		"upFreq":"434.5250"
	},
	{
		"city":"高密",
		"ctcss":"T88.5",
		"downFreq":"439.5500",
		"lat":"36.365794",
		"lon":"119.702793",
		"name":"高密439.55",
		"note":"20140815",
		"state":"山东",
		"upFreq":"434.5500"
	},
	{
		"city":"德州",
		"ctcss":"T94.8",
		"downFreq":"439.7000",
		"lat":"37.438405",
		"lon":"116.304710",
		"name":"德州439.7",
		"note":"20140815",
		"state":"山东",
		"upFreq":"432.7000"
	},
	{
		"city":"禹城",
		"ctcss":"T162.2",
		"downFreq":"438.8000",
		"lat":"36.941309",
		"lon":"116.590915",
		"name":"禹城438.8",
		"note":"20140815",
		"state":"山东",
		"upFreq":"433.8000"
	},
	{
		"city":"齐河",
		"ctcss":"T88.5",
		"downFreq":"439.9000",
		"lat":"36.712229",
		"lon":"116.676462",
		"name":"齐河439.9",
		"note":"20140815",
		"state":"山东",
		"upFreq":"434.9000"
	},
	{
		"city":"乐陵",
		"ctcss":"T88.5",
		"downFreq":"439.5250",
		"lat":"37.664393",
		"lon":"117.161173",
		"name":"乐陵439.525",
		"note":"20140828",
		"state":"山东",
		"upFreq":"434.5250"
	},
	{
		"city":"青岛",
		"ctcss":"T88.5",
		"downFreq":"438.5500",
		"lat":"36.127556",
		"lon":"120.390774",
		"name":"青岛438.55",
		"note":"20140815",
		"state":"山东",
		"upFreq":"433.5500"
	},
	{
		"city":"青岛",
		"ctcss":"T88.5",
		"downFreq":"438.8000",
		"lat":"36.116265",
		"lon":"120.399831",
		"name":"青岛438.8",
		"note":"20140815",
		"state":"山东",
		"upFreq":"431.8000"
	},
	{
		"city":"青岛开发区",
		"ctcss":"T88.5",
		"downFreq":"439.1500",
		"lat":"36.087586",
		"lon":"120.362209",
		"name":"青岛开发区439.15",
		"note":"20140815",
		"state":"山东",
		"upFreq":"434.1500"
	},
	{
		"city":"青岛黄岛",
		"ctcss":"T88.5",
		"downFreq":"438.3000",
		"lat":"36.017304",
		"lon":"120.191867",
		"name":"青岛黄岛438.3",
		"note":"20140816",
		"state":"山东",
		"upFreq":"430.3000"
	},
	{
		"city":"青岛李沧",
		"ctcss":"T88.5",
		"downFreq":"439.9000",
		"lat":"36.192870",
		"lon":"120.415164",
		"name":"青岛李沧439.9",
		"note":"20140815",
		"state":"山东",
		"upFreq":"434.9000"
	},
	{
		"city":"青岛城阳",
		"ctcss":"T88.5",
		"downFreq":"439.1750",
		"lat":"36.291603",
		"lon":"120.351671",
		"name":"青岛城阳439.175",
		"note":"20140815",
		"state":"山东",
		"upFreq":"432.6750"
	},
	{
		"city":"烟台芝罘区",
		"ctcss":"T103.5",
		"downFreq":"438.2500",
		"lat":"37.526730",
		"lon":"121.342984",
		"name":"烟台芝罘区438.25",
		"note":"20140826",
		"state":"山东",
		"upFreq":"433.2500"
	},
	{
		"city":"烟台莱山区",
		"ctcss":"T88.5",
		"downFreq":"438.3000",
		"lat":"37.413474",
		"lon":"121.472709",
		"name":"烟台莱山区438.3",
		"note":"20140826",
		"state":"山东",
		"upFreq":"433.3000"
	},
	{
		"city":"烟台福山区",
		"ctcss":"T88.5",
		"downFreq":"438.0000",
		"lat":"37.456633",
		"lon":"121.180690",
		"name":"烟台福山区438",
		"note":"20140826",
		"state":"山东",
		"upFreq":"433.0000"
	},
	{
		"city":"蓬莱",
		"ctcss":"T88.5",
		"downFreq":"439.3750",
		"lat":"37.656815",
		"lon":"120.879382",
		"name":"蓬莱439.375",
		"note":"20140826",
		"state":"山东",
		"upFreq":"430.3750"
	},
	{
		"city":"滕州",
		"ctcss":"T88.5",
		"downFreq":"438.5000",
		"lat":"35.045578",
		"lon":"117.165089",
		"name":"滕州438.5",
		"note":"20140815",
		"state":"山东",
		"upFreq":"433.5000"
	},
	{
		"city":"滕州",
		"ctcss":"T88.5",
		"downFreq":"438.9000",
		"lat":"35.051293",
		"lon":"117.124631",
		"name":"滕州438.9",
		"note":"20140815",
		"state":"山东",
		"upFreq":"433.8500"
	},
	{
		"city":"莱阳",
		"ctcss":"T91.5",
		"downFreq":"438.6250",
		"lat":"36.888681",
		"lon":"120.753844",
		"name":"莱阳438.625",
		"note":"20140826",
		"state":"山东",
		"upFreq":"433.6250"
	},
	{
		"city":"莱芜",
		"ctcss":"T88.5",
		"downFreq":"439.5250",
		"lat":"36.238512",
		"lon":"117.670487",
		"name":"莱芜439.525",
		"note":"20140815",
		"state":"山东",
		"upFreq":"434.5250"
	},
	{
		"city":"即墨",
		"ctcss":"T100",
		"downFreq":"439.1000",
		"lat":"36.492202",
		"lon":"120.520765",
		"name":"即墨439.1",
		"note":"20140815",
		"state":"山东",
		"upFreq":"434.1000"
	},
	{
		"city":"崂山",
		"ctcss":"T88.5",
		"downFreq":"439.8750",
		"lat":"36.194616",
		"lon":"120.570892",
		"name":"崂山439.875",
		"note":"20140815",
		"state":"山东",
		"upFreq":"432.8750"
	},
	{
		"city":"滨城",
		"ctcss":"T88.5",
		"downFreq":"438.8500",
		"lat":"37.440782",
		"lon":"117.968185",
		"name":"滨城438.85",
		"note":"20140815",
		"state":"山东",
		"upFreq":"433.8500"
	},
	{
		"city":"龙口",
		"ctcss":"T88.5",
		"downFreq":"438.0750",
		"lat":"37.608468",
		"lon":"120.502551",
		"name":"龙口438.075",
		"note":"20140815",
		"state":"山东",
		"upFreq":"433.0750"
	},
	{
		"city":"龙口车友俱乐部",
		"ctcss":"T88.5",
		"downFreq":"439.8500",
		"lat":"37.631319",
		"lon":"120.521772",
		"name":"龙口车友俱乐部439.85",
		"note":"20140815",
		"state":"山东",
		"upFreq":"434.8500"
	},
	{
		"city":"淄博",
		"ctcss":"T88.5",
		"downFreq":"439.6500",
		"lat":"36.814616",
		"lon":"118.079260",
		"name":"淄博439.65",
		"note":"20140815",
		"state":"山东",
		"upFreq":"434.6500"
	},
	{
		"city":"淄博",
		"ctcss":"T88.5",
		"downFreq":"438.0500",
		"lat":"36.792382",
		"lon":"118.055490",
		"name":"淄博438.05",
		"note":"20140815",
		"state":"山东",
		"upFreq":"433.0500"
	},
	{
		"city":"淄博",
		"ctcss":"T88.5",
		"downFreq":"439.0500",
		"lat":"36.788705",
		"lon":"118.064809",
		"name":"淄博439.050",
		"note":"20140815",
		"state":"山东",
		"upFreq":"434.0500"
	},
	{
		"city":"淄博淄川区",
		"ctcss":"T88.5",
		"downFreq":"438.0000",
		"lat":"36.594296",
		"lon":"118.026034",
		"name":"淄博淄川区438",
		"note":"20140815",
		"state":"山东",
		"upFreq":"433.0000"
	},
	{
		"city":"桓台县",
		"ctcss":"T88.5",
		"downFreq":"439.2750",
		"lat":"36.978125",
		"lon":"118.042361",
		"name":"桓台县439.275",
		"note":"20140815",
		"state":"山东",
		"upFreq":"434.2750"
	},
	{
		"city":"聊城",
		"ctcss":"T88.5",
		"downFreq":"438.8500",
		"lat":"36.438255",
		"lon":"115.992278",
		"name":"聊城438.85",
		"note":"20140827",
		"state":"山东",
		"upFreq":"433.8500"
	},
	{
		"city":"平邑",
		"ctcss":"T88.5",
		"downFreq":"439.6500",
		"lat":"35.421578",
		"lon":"117.705356",
		"name":"平邑439.65",
		"note":"20140828",
		"state":"山东",
		"upFreq":"434.6500"
	},
	{
		"city":"蒙山",
		"ctcss":"T88.5",
		"downFreq":"145.7500",
		"lat":"35.014110",
		"lon":"118.664005",
		"name":"蒙山145.75",
		"note":"20140828",
		"state":"山东",
		"upFreq":"145.1500"
	},
	{
		"city":"菏泽",
		"ctcss":"T123",
		"downFreq":"439.5250",
		"lat":"35.263353",
		"lon":"115.464399",
		"name":"菏泽439.525",
		"note":"20140828",
		"state":"山东",
		"upFreq":"434.5250"
	},
	{
		"city":"铜陵",
		"ctcss":"T88.5",
		"downFreq":"439.5000",
		"lat":"30.930455",
		"lon":"117.808171",
		"name":"铜陵439.5",
		"note":"20140822",
		"state":"安徽",
		"upFreq":"434.5000"
	},
	{
		"city":"铜陵",
		"ctcss":"T88.5",
		"downFreq":"439.9500",
		"lat":"30.961296",
		"lon":"117.798541",
		"name":"铜陵439.95",
		"note":"20140822",
		"state":"安徽",
		"upFreq":"431.9500"
	},
	{
		"city":"巢湖",
		"ctcss":"T88.5",
		"downFreq":"439.9000",
		"lat":"31.613101",
		"lon":"117.862987",
		"name":"巢湖439.9",
		"note":"20140815",
		"state":"安徽",
		"upFreq":"434.9000"
	},
	{
		"city":"涡阳",
		"ctcss":"T88.5",
		"downFreq":"439.6500",
		"lat":"33.574265",
		"lon":"116.240382",
		"name":"涡阳439.65",
		"note":"20140815",
		"state":"安徽",
		"upFreq":"434.6500"
	},
	{
		"city":"马鞍山",
		"ctcss":"T88.5",
		"downFreq":"431.8250",
		"lat":"31.711499",
		"lon":"118.500152",
		"name":"马鞍山431.825",
		"note":"20140823",
		"state":"安徽",
		"upFreq":"439.8250"
	},
	{
		"city":"泗县",
		"ctcss":"T88.5",
		"downFreq":"439.9000",
		"lat":"33.550480",
		"lon":"117.884143",
		"name":"泗县439.9",
		"note":"20140815",
		"state":"安徽",
		"upFreq":"432.9000"
	},
	{
		"city":"池州",
		"ctcss":"T88.5",
		"downFreq":"439.6000",
		"lat":"30.644793",
		"lon":"117.484391",
		"name":"池州439.6",
		"note":"20140815",
		"state":"安徽",
		"upFreq":"434.6000"
	},
	{
		"city":"天长",
		"ctcss":"T82.5",
		"downFreq":"438.7800",
		"lat":"32.698730",
		"lon":"118.968347",
		"name":"天长438.78",
		"note":"20140815",
		"state":"安徽",
		"upFreq":"431.7800"
	},
	{
		"city":"滁州",
		"ctcss":"T88.5",
		"downFreq":"439.5500",
		"lat":"32.321022",
		"lon":"118.337210",
		"name":"滁州439.55",
		"note":"20140815",
		"state":"安徽",
		"upFreq":"430.5500"
	},
	{
		"city":"安庆",
		"ctcss":"T88.5",
		"downFreq":"439.7000",
		"lat":"30.533432",
		"lon":"117.075217",
		"name":"安庆439.7",
		"note":"20140815",
		"state":"安徽",
		"upFreq":"434.7000"
	},
	{
		"city":"合肥",
		"ctcss":"T88.5",
		"downFreq":"439.7500",
		"lat":"31.884793",
		"lon":"117.289375",
		"name":"合肥439.75",
		"note":"20140815",
		"state":"安徽",
		"upFreq":"434.7500"
	},
	{
		"city":"合肥",
		"ctcss":"T88.5",
		"downFreq":"439.6500",
		"lat":"31.886066",
		"lon":"117.276401",
		"name":"合肥439.65",
		"note":"20140815",
		"state":"安徽",
		"upFreq":"434.6500"
	},
	{
		"city":"合肥",
		"ctcss":"T88.5",
		"downFreq":"439.3500",
		"lat":"31.846117",
		"lon":"117.295655",
		"name":"合肥439.35",
		"note":"20140815",
		"state":"安徽",
		"upFreq":"431.3500"
	},
	{
		"city":"合肥",
		"ctcss":"T88.5",
		"downFreq":"438.3500",
		"lat":"31.872787",
		"lon":"117.303026",
		"name":"合肥438.35",
		"note":"20140815",
		"state":"安徽",
		"upFreq":"433.3500"
	},
	{
		"city":"合肥",
		"ctcss":"T88.5",
		"downFreq":"439.7250",
		"lat":"31.845562",
		"lon":"117.258230",
		"name":"合肥439.725",
		"note":"20140815",
		"state":"安徽",
		"upFreq":"431.7250"
	},
	{
		"city":"合肥",
		"ctcss":"T88.5",
		"downFreq":"439.8750",
		"lat":"31.849703",
		"lon":"117.262895",
		"name":"合肥439.875",
		"note":"20140815",
		"state":"安徽",
		"upFreq":"431.8750"
	},
	{
		"city":"庐江",
		"ctcss":"T88.5",
		"downFreq":"439.7750",
		"lat":"31.257862",
		"lon":"117.308497",
		"name":"庐江439.775",
		"note":"20140815",
		"state":"安徽",
		"upFreq":"434.7750"
	},
	{
		"city":"芜湖",
		"ctcss":"T88.5",
		"downFreq":"439.8500",
		"lat":"31.381532",
		"lon":"118.396340",
		"name":"芜湖439.85",
		"note":"20140815",
		"state":"安徽",
		"upFreq":"434.8500"
	},
	{
		"city":"淮北",
		"ctcss":"T88.5",
		"downFreq":"439.4700",
		"lat":"33.954177",
		"lon":"116.810332",
		"name":"淮北439.47",
		"note":"20140815",
		"state":"安徽",
		"upFreq":"434.4700"
	},
	{
		"city":"淮南人防",
		"ctcss":"T123",
		"downFreq":"438.4500",
		"lat":"32.663644",
		"lon":"117.014031",
		"name":"淮南人防438.45",
		"note":"20140815",
		"state":"安徽",
		"upFreq":"433.4500"
	},
	{
		"city":"凤台",
		"ctcss":"T88.5",
		"downFreq":"439.1500",
		"lat":"32.783926",
		"lon":"116.593321",
		"name":"凤台439.15",
		"note":"20140815",
		"state":"安徽",
		"upFreq":"431.1500"
	},
	{
		"city":"潘集",
		"ctcss":"T88.5",
		"downFreq":"439.5250",
		"lat":"32.804700",
		"lon":"116.855124",
		"name":"潘集439.525",
		"note":"20140815",
		"state":"安徽",
		"upFreq":"434.5250"
	},
	{
		"city":"界首",
		"ctcss":"T88.5",
		"downFreq":"439.5500",
		"lat":"33.226152",
		"lon":"115.377095",
		"name":"界首439.55",
		"note":"20140815",
		"state":"安徽",
		"upFreq":"431.5500"
	},
	{
		"city":"黄山",
		"ctcss":"T88.5",
		"downFreq":"439.8500",
		"lat":"30.290165",
		"lon":"118.095929",
		"name":"黄山439.85",
		"note":"20140815",
		"state":"安徽",
		"upFreq":"431.7500"
	},
	{
		"city":"凤阳",
		"ctcss":"T118.8",
		"downFreq":"430.1625",
		"lat":"32.795138",
		"lon":"117.619258",
		"name":"凤阳430.1625",
		"note":"20140828",
		"state":"安徽",
		"upFreq":"439.1625"
	},
	{
		"city":"凤阳",
		"ctcss":"T88.5",
		"downFreq":"439.9500",
		"lat":"32.804791",
		"lon":"117.602577",
		"name":"凤阳439.95",
		"note":"20140828",
		"state":"安徽",
		"upFreq":"431.9500"
	},
	{
		"city":"屯溪",
		"ctcss":"T88.5",
		"downFreq":"438.2500",
		"lat":"29.730286",
		"lon":"118.309864",
		"name":"屯溪438.25",
		"note":"20140815",
		"state":"安徽",
		"upFreq":"430.2500"
	},
	{
		"city":"亳州",
		"ctcss":"T88.5",
		"downFreq":"439.7500",
		"lat":"33.886136",
		"lon":"115.788791",
		"name":"亳州439.75",
		"note":"20140815",
		"state":"安徽",
		"upFreq":"434.7500"
	},
	{
		"city":"阜阳",
		"ctcss":"T88.5",
		"downFreq":"439.2000",
		"lat":"32.911981",
		"lon":"115.808469",
		"name":"阜阳439.2",
		"note":"20140815",
		"state":"安徽",
		"upFreq":"432.2000"
	},
	{
		"city":"阜阳",
		"ctcss":"T88.5",
		"downFreq":"439.8500",
		"lat":"32.913237",
		"lon":"115.805370",
		"name":"阜阳439.85",
		"note":"20140815",
		"state":"安徽",
		"upFreq":"434.8500"
	},
	{
		"city":"蚌埠",
		"ctcss":"T82.5",
		"downFreq":"439.1950",
		"lat":"32.905338",
		"lon":"117.357518",
		"name":"蚌埠439.195",
		"note":"20140815",
		"state":"安徽",
		"upFreq":"432.1950"
	},
	{
		"city":"蚌埠",
		"ctcss":"T88.5",
		"downFreq":"439.8000",
		"lat":"32.924692",
		"lon":"117.353300",
		"name":"蚌埠439.8",
		"note":"20140815",
		"state":"安徽",
		"upFreq":"431.8000"
	},
	{
		"city":"蚌埠",
		"ctcss":"T88.5",
		"downFreq":"147.9250",
		"lat":"32.921400",
		"lon":"117.358847",
		"name":"蚌埠147.925",
		"note":"20140815",
		"state":"安徽",
		"upFreq":"144.1250"
	},
	{
		"city":"蚌埠",
		"ctcss":"T88.5",
		"downFreq":"147.9750",
		"lat":"32.910885",
		"lon":"117.379673",
		"name":"蚌埠147.975",
		"note":"20140815",
		"state":"安徽",
		"upFreq":"144.1750"
	},
	{
		"city":"五河",
		"ctcss":"T88.5",
		"downFreq":"439.1750",
		"lat":"33.135082",
		"lon":"117.748686",
		"name":"五河439.175",
		"note":"20140815",
		"state":"安徽",
		"upFreq":"433.1750"
	},
	{
		"city":"宿州",
		"ctcss":"T97.4",
		"downFreq":"439.6750",
		"lat":"33.631130",
		"lon":"117.010347",
		"name":"宿州439.675",
		"note":"20140815",
		"state":"安徽",
		"upFreq":"431.6750"
	},
	{
		"city":"南昌",
		"ctcss":"T88.5",
		"downFreq":"439.5250",
		"lat":"28.666029",
		"lon":"115.894575",
		"name":"南昌439.525",
		"note":"20140815",
		"state":"江西",
		"upFreq":"434.5250"
	},
	{
		"city":"德兴",
		"ctcss":"T88.5",
		"downFreq":"147.9800",
		"lat":"28.944648",
		"lon":"117.748406",
		"name":"德兴147.98",
		"note":"20140815",
		"state":"江西",
		"upFreq":"144.1800"
	},
	{
		"city":"九江",
		"ctcss":"T88.5",
		"downFreq":"147.8750",
		"lat":"29.703510",
		"lon":"115.996630",
		"name":"九江147.875",
		"note":"20140815",
		"state":"江西",
		"upFreq":"144.0750"
	},
	{
		"city":"九江",
		"ctcss":"T88.5",
		"downFreq":"439.6000",
		"lat":"29.721437",
		"lon":"115.978583",
		"name":"九江439.6",
		"note":"20140815",
		"state":"江西",
		"upFreq":"434.6000"
	},
	{
		"city":"丰城",
		"ctcss":"T88.5",
		"downFreq":"439.8000",
		"lat":"28.086732",
		"lon":"115.805907",
		"name":"丰城439.8",
		"note":"20140815",
		"state":"江西",
		"upFreq":"434.8000"
	},
	{
		"city":"丰城",
		"ctcss":"T88.5",
		"downFreq":"439.3750",
		"lat":"28.100680",
		"lon":"115.812337",
		"name":"丰城439.375",
		"note":"20140815",
		"state":"江西",
		"upFreq":"434.3750"
	},
	{
		"city":"新余",
		"ctcss":"T118.8",
		"downFreq":"439.9875",
		"lat":"27.811819",
		"lon":"114.935116",
		"name":"新余439.9875",
		"note":"20140815",
		"state":"江西",
		"upFreq":"430.0255"
	},
	{
		"city":"萍乡",
		"ctcss":"T88.5",
		"downFreq":"439.4000",
		"lat":"27.626033",
		"lon":"113.862615",
		"name":"萍乡439.4",
		"note":"20140815",
		"state":"江西",
		"upFreq":"433.4000"
	},
	{
		"city":"三清山",
		"ctcss":"T88.5",
		"downFreq":"147.9800",
		"lat":"28.921961",
		"lon":"118.089734",
		"name":"三清山147.98",
		"note":"20140815",
		"state":"江西",
		"upFreq":"144.1800"
	},
	{
		"city":"井冈山",
		"ctcss":"T88.5",
		"downFreq":"147.9500",
		"lat":"26.635057",
		"lon":"114.150251",
		"name":"井冈山147.95",
		"note":"20140815",
		"state":"江西",
		"upFreq":"144.1500"
	},
	{
		"city":"宜昌",
		"ctcss":"T88.5",
		"downFreq":"147.9250",
		"lat":"30.718064",
		"lon":"111.290672",
		"name":"宜昌147.925",
		"note":"20140825",
		"state":"湖北",
		"upFreq":"144.1250"
	},
	{
		"city":"江夏",
		"ctcss":"T97.4",
		"downFreq":"439.5750",
		"lat":"30.254665",
		"lon":"114.345251",
		"name":"江夏439.575",
		"note":"20140815",
		"state":"湖北",
		"upFreq":"431.5750"
	},
	{
		"city":"宜昌",
		"ctcss":"T67",
		"downFreq":"439.9500",
		"lat":"30.747131",
		"lon":"111.286533",
		"name":"宜昌439.95",
		"note":"20140815",
		"state":"湖北",
		"upFreq":"430.4500"
	},
	{
		"city":"孝感",
		"ctcss":"T88.5",
		"downFreq":"439.4000",
		"lat":"30.947485",
		"lon":"113.936684",
		"name":"孝感439.4",
		"note":"20140815",
		"state":"湖北",
		"upFreq":"431.4000"
	},
	{
		"city":"仙桃",
		"ctcss":"T88.5",
		"downFreq":"439.1625",
		"lat":"30.304206",
		"lon":"113.395746",
		"name":"仙桃439.1625",
		"note":"20140823",
		"state":"湖北",
		"upFreq":"432.1625"
	},
	{
		"city":"十堰",
		"ctcss":"T88.5",
		"downFreq":"439.9250",
		"lat":"32.613875",
		"lon":"110.785254",
		"name":"十堰439.925",
		"note":"20140815",
		"state":"湖北",
		"upFreq":"431.9250"
	},
	{
		"city":"荆州",
		"ctcss":"T88.5",
		"downFreq":"147.8750",
		"lat":"30.407236",
		"lon":"112.121848",
		"name":"荆州147.875",
		"note":"20140825",
		"state":"湖北",
		"upFreq":"144.0750"
	},
	{
		"city":"荆州",
		"ctcss":"T88.5",
		"downFreq":"439.5750",
		"lat":"30.418023",
		"lon":"112.094821",
		"name":"荆州439.575",
		"note":"20140815",
		"state":"湖北",
		"upFreq":"430.5750"
	},
	{
		"city":"荆州",
		"ctcss":"T88.5",
		"downFreq":"145.4750",
		"lat":"30.399925",
		"lon":"112.085116",
		"name":"荆州145.475",
		"note":"20140815",
		"state":"湖北",
		"upFreq":"144.8750"
	},
	{
		"city":"武汉",
		"ctcss":"T69.3",
		"downFreq":"439.7750",
		"lat":"30.556849",
		"lon":"114.307943",
		"name":"武汉439.775",
		"note":"20140815",
		"state":"湖北",
		"upFreq":"432.7750"
	},
	{
		"city":"武汉",
		"ctcss":"T97.4",
		"downFreq":"439.5750",
		"lat":"30.604535",
		"lon":"114.291521",
		"name":"武汉439.575",
		"note":"20140815",
		"state":"湖北",
		"upFreq":"431.5750"
	},
	{
		"city":"武汉",
		"ctcss":"T88.5",
		"downFreq":"145.7750",
		"lat":"30.595540",
		"lon":"114.297112",
		"name":"武汉145.775",
		"note":"20140815",
		"state":"湖北",
		"upFreq":"144.1750"
	},
	{
		"city":"汉川",
		"ctcss":"T94.8",
		"downFreq":"439.8500",
		"lat":"30.631277",
		"lon":"113.683209",
		"name":"汉川439.85",
		"note":"20140815",
		"state":"湖北",
		"upFreq":"431.8500"
	},
	{
		"city":"荆门",
		"ctcss":"T97.4",
		"downFreq":"438.7000",
		"lat":"31.052767",
		"lon":"112.221723",
		"name":"荆门438.7",
		"note":"20140815",
		"state":"湖北",
		"upFreq":"430.1000"
	},
	{
		"city":"泸县",
		"ctcss":"T88.5",
		"downFreq":"439.7250",
		"lat":"29.123022",
		"lon":"105.484730",
		"name":"泸县439.725",
		"note":"20140815",
		"state":"四川",
		"upFreq":"434.7250"
	},
	{
		"city":"彭州",
		"ctcss":"T88.5",
		"downFreq":"438.2500",
		"lat":"31.145525",
		"lon":"103.869080",
		"name":"彭州438.25",
		"note":"20140815",
		"state":"四川",
		"upFreq":"431.2500"
	},
	{
		"city":"德阳",
		"ctcss":"T88.5",
		"downFreq":"439.3000",
		"lat":"31.114308",
		"lon":"104.378668",
		"name":"德阳439.3",
		"note":"20140826",
		"state":"四川",
		"upFreq":"431.3000"
	},
	{
		"city":"宜宾",
		"ctcss":"T88.5",
		"downFreq":"439.9500",
		"lat":"28.767997",
		"lon":"104.636540",
		"name":"宜宾439.95",
		"note":"20140815",
		"state":"四川",
		"upFreq":"431.9500"
	},
	{
		"city":"达州",
		"ctcss":"T88.5",
		"downFreq":"147.8250",
		"lat":"31.196108",
		"lon":"107.478870",
		"name":"达州147.825",
		"note":"20140827",
		"state":"四川",
		"upFreq":"144.1750"
	},
	{
		"city":"达州",
		"ctcss":"T88.5",
		"downFreq":"439.4000",
		"lat":"31.212641",
		"lon":"107.519673",
		"name":"达州439.4",
		"note":"20140827",
		"state":"四川",
		"upFreq":"434.4000"
	},
	{
		"city":"成都",
		"ctcss":"T88.5",
		"downFreq":"439.6000",
		"lat":"30.701307",
		"lon":"104.081285",
		"name":"成都439.6",
		"note":"20140815",
		"state":"四川",
		"upFreq":"434.6000"
	},
	{
		"city":"金堂",
		"ctcss":"T88.5",
		"downFreq":"439.5500",
		"lat":"30.740459",
		"lon":"104.624469",
		"name":"金堂439.55",
		"note":"20140815",
		"state":"四川",
		"upFreq":"434.5500"
	},
	{
		"city":"雅安",
		"ctcss":"T88.5",
		"downFreq":"439.1750",
		"lat":"29.977043",
		"lon":"103.026608",
		"name":"雅安439.175",
		"note":"20140815",
		"state":"四川",
		"upFreq":"434.1750"
	},
	{
		"city":"西昌",
		"ctcss":"T88.5",
		"downFreq":"439.5250",
		"lat":"27.862308",
		"lon":"102.103779",
		"name":"西昌439.525",
		"note":"20140815",
		"state":"四川",
		"upFreq":"431.5250"
	},
	{
		"city":"乐山",
		"ctcss":"T100",
		"downFreq":"147.9000",
		"lat":"29.578521",
		"lon":"103.776920",
		"name":"乐山147.9",
		"note":"20140815",
		"state":"四川",
		"upFreq":"144.1000"
	},
	{
		"city":"泸州",
		"ctcss":"T88.5",
		"downFreq":"439.9000",
		"lat":"28.901922",
		"lon":"105.435845",
		"name":"泸州439.9",
		"note":"20140815",
		"state":"四川",
		"upFreq":"434.9000"
	},
	{
		"city":"绵阳",
		"ctcss":"T88.5",
		"downFreq":"439.8250",
		"lat":"31.481934",
		"lon":"104.683013",
		"name":"绵阳439.825",
		"note":"20140826",
		"state":"四川",
		"upFreq":"434.8250"
	},
	{
		"city":"攀枝花",
		"ctcss":"T88.5",
		"downFreq":"439.9000",
		"lat":"26.580649",
		"lon":"101.712204",
		"name":"攀枝花439.9",
		"note":"20140815",
		"state":"四川",
		"upFreq":"434.9000"
	},
	{
		"city":"三台县",
		"ctcss":"T179.9",
		"downFreq":"439.7750",
		"lat":"31.133849",
		"lon":"105.040593",
		"name":"三台县439.775",
		"note":"20140815",
		"state":"四川",
		"upFreq":"431.7750"
	},
	{
		"city":"金湖",
		"ctcss":"T88.5",
		"downFreq":"439.3500",
		"lat":"33.004373",
		"lon":"119.134256",
		"name":"金湖439.35",
		"note":"20140824",
		"state":"江苏",
		"upFreq":"431.3500"
	},
	{
		"city":"溧阳",
		"ctcss":"T88.5",
		"downFreq":"438.1100",
		"lat":"31.407041",
		"lon":"119.380757",
		"name":"溧阳438.11",
		"note":"20140815",
		"state":"江苏",
		"upFreq":"432.1100"
	},
	{
		"city":"溧阳",
		"ctcss":"T88.5",
		"downFreq":"439.7250",
		"lat":"31.439835",
		"lon":"119.400630",
		"name":"溧阳439.725",
		"note":"20140815",
		"state":"江苏",
		"upFreq":"434.7250"
	},
	{
		"city":"句容",
		"ctcss":"T88.5",
		"downFreq":"438.5250",
		"lat":"31.940960",
		"lon":"119.218490",
		"name":"句容438.525",
		"note":"20140815",
		"state":"江苏",
		"upFreq":"430.5250"
	},
	{
		"city":"丹阳",
		"ctcss":"T88.5",
		"downFreq":"439.2750",
		"lat":"31.971883",
		"lon":"119.635046",
		"name":"丹阳439.275",
		"note":"20140815",
		"state":"江苏",
		"upFreq":"430.2750"
	},
	{
		"city":"海门",
		"ctcss":"T88.5",
		"downFreq":"438.4000",
		"lat":"31.937591",
		"lon":"121.295868",
		"name":"海门438.4",
		"note":"20140815",
		"state":"江苏",
		"upFreq":"433.4000"
	},
	{
		"city":"南京",
		"ctcss":"T88.5",
		"downFreq":"439.4750",
		"lat":"32.052324",
		"lon":"118.759440",
		"name":"南京439.475",
		"note":"20140815",
		"state":"江苏",
		"upFreq":"430.4750"
	},
	{
		"city":"南京",
		"ctcss":"T88.5",
		"downFreq":"145.4750",
		"lat":"32.060459",
		"lon":"118.770723",
		"name":"南京145.475",
		"note":"20140815",
		"state":"江苏",
		"upFreq":"144.8750"
	},
	{
		"city":"江宁",
		"ctcss":"T71.9",
		"downFreq":"147.9500",
		"lat":"31.842683",
		"lon":"118.814680",
		"name":"江宁147.95",
		"note":"20140815",
		"state":"江苏",
		"upFreq":"144.1500"
	},
	{
		"city":"大厂",
		"ctcss":"T88.5",
		"downFreq":"439.4000",
		"lat":"32.213070",
		"lon":"118.728535",
		"name":"大厂439.4",
		"note":"20140815",
		"state":"江苏",
		"upFreq":"430.4000"
	},
	{
		"city":"吴江",
		"ctcss":"T88.5",
		"downFreq":"439.9300",
		"lat":"31.006642",
		"lon":"120.659429",
		"name":"吴江439.93",
		"note":"20140815",
		"state":"江苏",
		"upFreq":"434.9300"
	},
	{
		"city":"沭阳",
		"ctcss":"T88.5",
		"downFreq":"439.1500",
		"lat":"34.163479",
		"lon":"118.834631",
		"name":"沭阳439.15",
		"note":"20140815",
		"state":"江苏",
		"upFreq":"432.1500"
	},
	{
		"city":"宿迁",
		"ctcss":"T88.5",
		"downFreq":"439.6500",
		"lat":"33.960867",
		"lon":"118.299355",
		"name":"宿迁439.65",
		"note":"20140815",
		"state":"江苏",
		"upFreq":"431.6500"
	},
	{
		"city":"新沂",
		"ctcss":"T88.5",
		"downFreq":"439.8000",
		"lat":"34.286110",
		"lon":"118.329786",
		"name":"新沂439.8",
		"note":"20140815",
		"state":"江苏",
		"upFreq":"434.8000"
	},
	{
		"city":"徐州",
		"ctcss":"T91.5",
		"downFreq":"439.2800",
		"lat":"34.255757",
		"lon":"117.193028",
		"name":"徐州439.28",
		"note":"20140815",
		"state":"江苏",
		"upFreq":"434.2650"
	},
	{
		"city":"淮安",
		"ctcss":"T88.5",
		"downFreq":"439.5250",
		"lat":"33.622528",
		"lon":"119.022224",
		"name":"淮安439.525",
		"note":"20140815",
		"state":"江苏",
		"upFreq":"430.5250"
	},
	{
		"city":"扬中",
		"ctcss":"T88.5",
		"downFreq":"438.1000",
		"lat":"32.166087",
		"lon":"119.844952",
		"name":"扬中438.1",
		"note":"20140815",
		"state":"江苏",
		"upFreq":"433.1000"
	},
	{
		"city":"扬州",
		"ctcss":"T88.5",
		"downFreq":"438.4750",
		"lat":"32.427262",
		"lon":"119.452266",
		"name":"扬州438.475",
		"note":"20140815",
		"state":"江苏",
		"upFreq":"433.4750"
	},
	{
		"city":"扬州",
		"ctcss":"T88.5",
		"downFreq":"145.4500",
		"lat":"32.424231",
		"lon":"119.410597",
		"name":"扬州145.45",
		"note":"20140815",
		"state":"江苏",
		"upFreq":"144.8500"
	},
	{
		"city":"镇江",
		"ctcss":"T88.5",
		"downFreq":"432.2550",
		"lat":"32.229399",
		"lon":"119.443031",
		"name":"镇江432.255",
		"note":"20140815",
		"state":"江苏",
		"upFreq":"437.2550"
	},
	{
		"city":"镇江",
		"ctcss":"T82.5",
		"downFreq":"439.1500",
		"lat":"32.179511",
		"lon":"119.447369",
		"name":"镇江439.15",
		"note":"20140815",
		"state":"江苏",
		"upFreq":"434.1500"
	},
	{
		"city":"宜兴",
		"ctcss":"T88.5",
		"downFreq":"438.5750",
		"lat":"31.377968",
		"lon":"119.789941",
		"name":"宜兴438.575",
		"note":"20140815",
		"state":"江苏",
		"upFreq":"433.5750"
	},
	{
		"city":"泗洪",
		"ctcss":"T88.5",
		"downFreq":"439.7250",
		"lat":"33.439170",
		"lon":"118.330991",
		"name":"泗洪439.725",
		"note":"20140815",
		"state":"江苏",
		"upFreq":"432.7250"
	},
	{
		"city":"仪征",
		"ctcss":"T88.5",
		"downFreq":"439.5750",
		"lat":"32.379547",
		"lon":"119.210413",
		"name":"仪征439.575",
		"note":"20140815",
		"state":"江苏",
		"upFreq":"431.5750"
	},
	{
		"city":"盱眙",
		"ctcss":"T91.5",
		"downFreq":"438.1750",
		"lat":"32.975321",
		"lon":"118.515473",
		"name":"盱眙438.175",
		"note":"20140815",
		"state":"江苏",
		"upFreq":"430.1750"
	},
	{
		"city":"涟水",
		"ctcss":"T88.5",
		"downFreq":"439.7000",
		"lat":"33.889337",
		"lon":"119.310739",
		"name":"涟水439.7",
		"note":"20140815",
		"state":"江苏",
		"upFreq":"430.7000"
	},
	{
		"city":"涟水自驾游",
		"ctcss":"T88.5",
		"downFreq":"438.5500",
		"lat":"33.861105",
		"lon":"119.312526",
		"name":"涟水自驾游438.55",
		"note":"20140815",
		"state":"江苏",
		"upFreq":"430.5000"
	},
	{
		"city":"灌云",
		"ctcss":"T88.5",
		"downFreq":"439.1250",
		"lat":"34.409165",
		"lon":"119.382168",
		"name":"灌云439.125",
		"note":"20140815",
		"state":"江苏",
		"upFreq":"434.1250"
	},
	{
		"city":"连云港",
		"ctcss":"T88.5",
		"downFreq":"434.5000",
		"lat":"34.597218",
		"lon":"119.183446",
		"name":"连云港434.5",
		"note":"20140815",
		"state":"江苏",
		"upFreq":"439.5000"
	},
	{
		"city":"连云港",
		"ctcss":"T88.5",
		"downFreq":"145.4750",
		"lat":"34.577477",
		"lon":"119.198574",
		"name":"连云港145.475",
		"note":"20140815",
		"state":"江苏",
		"upFreq":"144.8750"
	},
	{
		"city":"赣榆",
		"ctcss":"T88.5",
		"downFreq":"438.2750",
		"lat":"34.873159",
		"lon":"119.019511",
		"name":"赣榆438.275",
		"note":"20140815",
		"state":"江苏",
		"upFreq":"433.2750"
	},
	{
		"city":"常州",
		"ctcss":"T88.5",
		"downFreq":"439.3750",
		"lat":"31.766519",
		"lon":"119.967345",
		"name":"常州439.375",
		"note":"20140815",
		"state":"江苏",
		"upFreq":"434.3750"
	},
	{
		"city":"无锡",
		"ctcss":"T88.5",
		"downFreq":"438.5500",
		"lat":"31.580753",
		"lon":"120.298044",
		"name":"无锡438.55",
		"note":"20140815",
		"state":"江苏",
		"upFreq":"433.5500"
	},
	{
		"city":"常熟",
		"ctcss":"T88.5",
		"downFreq":"438.0500",
		"lat":"31.665261",
		"lon":"120.812320",
		"name":"常熟438.05",
		"note":"20140815",
		"state":"江苏",
		"upFreq":"433.0500"
	},
	{
		"city":"昆山",
		"ctcss":"T71.9",
		"downFreq":"439.5500",
		"lat":"31.310472",
		"lon":"120.954335",
		"name":"昆山439.55",
		"note":"20140815",
		"state":"江苏",
		"upFreq":"434.5500"
	},
	{
		"city":"昆山",
		"ctcss":"T250.3",
		"downFreq":"438.0750",
		"lat":"31.315431",
		"lon":"120.963872",
		"name":"昆山438.075",
		"note":"20140815",
		"state":"江苏",
		"upFreq":"433.0750"
	},
	{
		"city":"江阴",
		"ctcss":"T88.5",
		"downFreq":"145.7500",
		"lat":"31.826085",
		"lon":"120.317938",
		"name":"江阴145.75",
		"note":"20140815",
		"state":"江苏",
		"upFreq":"145.1500"
	},
	{
		"city":"江阴",
		"ctcss":"T88.5",
		"downFreq":"147.9500",
		"lat":"31.855323",
		"lon":"120.298836",
		"name":"江阴147.95",
		"note":"20140815",
		"state":"江苏",
		"upFreq":"144.1500"
	},
	{
		"city":"江阴",
		"ctcss":"T103.5",
		"downFreq":"436.5750",
		"lat":"31.839500",
		"lon":"120.292206",
		"name":"江阴436.575",
		"note":"20140815",
		"state":"江苏",
		"upFreq":"431.5750"
	},
	{
		"city":"苏州",
		"ctcss":"T77",
		"downFreq":"439.7750",
		"lat":"31.333251",
		"lon":"120.634805",
		"name":"苏州439.775",
		"note":"20140815",
		"state":"江苏",
		"upFreq":"433.7750"
	},
	{
		"city":"苏州",
		"ctcss":"T88.5",
		"downFreq":"437.9250",
		"lat":"31.322104",
		"lon":"120.616482",
		"name":"苏州437.925",
		"note":"20140815",
		"state":"江苏",
		"upFreq":"432.9250"
	},
	{
		"city":"苏州",
		"ctcss":"T79.7",
		"downFreq":"439.0125",
		"lat":"31.299157",
		"lon":"120.608086",
		"name":"苏州439.0125",
		"note":"20140815",
		"state":"江苏",
		"upFreq":"432.0125"
	},
	{
		"city":"苏州",
		"ctcss":"T88.5",
		"downFreq":"438.0250",
		"lat":"31.339553",
		"lon":"120.596491",
		"name":"苏州438.025",
		"note":"20140815",
		"state":"江苏",
		"upFreq":"433.0250"
	},
	{
		"city":"苏州",
		"ctcss":"T88.5",
		"downFreq":"439.7125",
		"lat":"31.340173",
		"lon":"120.644632",
		"name":"苏州439.7125",
		"note":"20140815",
		"state":"江苏",
		"upFreq":"433.7125"
	},
	{
		"city":"太仓",
		"ctcss":"T88.5",
		"downFreq":"439.9500",
		"lat":"31.578840",
		"lon":"121.171728",
		"name":"太仓439.95",
		"note":"20140815",
		"state":"江苏",
		"upFreq":"434.9500"
	},
	{
		"city":"南通",
		"ctcss":"T88.5",
		"downFreq":"438.2000",
		"lat":"32.028875",
		"lon":"120.861034",
		"name":"南通438.2",
		"note":"20140815",
		"state":"江苏",
		"upFreq":"433.2000"
	},
	{
		"city":"海安",
		"ctcss":"T88.5",
		"downFreq":"439.4500",
		"lat":"32.551277",
		"lon":"120.471619",
		"name":"海安439.45",
		"note":"20140815",
		"state":"江苏",
		"upFreq":"430.4500"
	},
	{
		"city":"张家港",
		"ctcss":"T88.5",
		"downFreq":"439.0500",
		"lat":"31.921652",
		"lon":"120.627170",
		"name":"张家港439.05",
		"note":"20140815",
		"state":"江苏",
		"upFreq":"434.0500"
	},
	{
		"city":"高邮",
		"ctcss":"T88.5",
		"downFreq":"438.7600",
		"lat":"32.841389",
		"lon":"119.484965",
		"name":"高邮438.76",
		"note":"20140815",
		"state":"江苏",
		"upFreq":"433.7600"
	},
	{
		"city":"江都",
		"ctcss":"T85.4",
		"downFreq":"147.8500",
		"lat":"32.556682",
		"lon":"119.681537",
		"name":"江都147.85",
		"note":"20140815",
		"state":"江苏",
		"upFreq":"144.0500"
	},
	{
		"city":"江都",
		"ctcss":"T85.4",
		"downFreq":"437.7750",
		"lat":"32.539842",
		"lon":"119.724488",
		"name":"江都437.775",
		"note":"20140815",
		"state":"江苏",
		"upFreq":"432.7750"
	},
	{
		"city":"海门",
		"ctcss":"T88.5",
		"downFreq":"438.2500",
		"lat":"31.958896",
		"lon":"121.318215",
		"name":"海门438.25",
		"note":"20140815",
		"state":"江苏",
		"upFreq":"433.2500"
	},
	{
		"city":"盐城",
		"ctcss":"T88.5",
		"downFreq":"438.7750",
		"lat":"33.396881",
		"lon":"120.133786",
		"name":"盐城438.775",
		"note":"20140815",
		"state":"江苏",
		"upFreq":"433.7750"
	},
	{
		"city":"盐城",
		"ctcss":"T173.8",
		"downFreq":"439.6250",
		"lat":"33.380647",
		"lon":"120.162167",
		"name":"盐城439.625",
		"note":"20140821",
		"state":"江苏",
		"upFreq":"430.6250"
	},
	{
		"city":"大丰",
		"ctcss":"T88.5",
		"downFreq":"438.7000",
		"lat":"33.208235",
		"lon":"120.560649",
		"name":"大丰438.7",
		"note":"20140815",
		"state":"江苏",
		"upFreq":"433.7000"
	},
	{
		"city":"邳州",
		"ctcss":"T88.5",
		"downFreq":"439.4500",
		"lat":"34.427278",
		"lon":"117.892801",
		"name":"邳州439.45",
		"note":"20140815",
		"state":"江苏",
		"upFreq":"434.4500"
	},
	{
		"city":"启东",
		"ctcss":"T88.5",
		"downFreq":"438.1500",
		"lat":"31.882062",
		"lon":"121.658810",
		"name":"启东438.15",
		"note":"20140815",
		"state":"江苏",
		"upFreq":"433.1500"
	},
	{
		"city":"泰州",
		"ctcss":"T88.5",
		"downFreq":"439.1000",
		"lat":"32.456405",
		"lon":"119.942739",
		"name":"泰州439.1",
		"note":"20140815",
		"state":"江苏",
		"upFreq":"434.1000"
	},
	{
		"city":"兴化",
		"ctcss":"T88.5",
		"downFreq":"438.3750",
		"lat":"32.947187",
		"lon":"120.006743",
		"name":"兴化438.375",
		"note":"20140815",
		"state":"江苏",
		"upFreq":"433.3750"
	},
	{
		"city":"靖江",
		"ctcss":"T88.5",
		"downFreq":"439.6750",
		"lat":"32.061751",
		"lon":"120.261412",
		"name":"靖江439.675",
		"note":"20140815",
		"state":"江苏",
		"upFreq":"434.6750"
	},
	{
		"city":"泰兴",
		"ctcss":"T88.5",
		"downFreq":"439.9000",
		"lat":"32.210587",
		"lon":"120.148955",
		"name":"泰兴439.9",
		"note":"20140815",
		"state":"江苏",
		"upFreq":"434.9000"
	},
	{
		"city":"东台",
		"ctcss":"T88.5",
		"downFreq":"438.5000",
		"lat":"32.800730",
		"lon":"120.548311",
		"name":"东台438.5",
		"note":"20140815",
		"state":"江苏",
		"upFreq":"433.5000"
	},
	{
		"city":"如皋",
		"ctcss":"T88.5",
		"downFreq":"439.9750",
		"lat":"32.267903",
		"lon":"120.590131",
		"name":"如皋439.975",
		"note":"20140815",
		"state":"江苏",
		"upFreq":"432.9750"
	},
	{
		"city":"泉州",
		"ctcss":"T88.5",
		"downFreq":"147.9750",
		"lat":"24.902512",
		"lon":"118.606377",
		"name":"泉州147.975",
		"note":"20140820",
		"state":"福建",
		"upFreq":"144.0750"
	},
	{
		"city":"泉州",
		"ctcss":"T123",
		"downFreq":"439.1250",
		"lat":"24.904239",
		"lon":"118.576740",
		"name":"泉州439.125",
		"note":"20140820",
		"state":"福建",
		"upFreq":"431.1250"
	},
	{
		"city":"龙岩",
		"ctcss":"T88.5",
		"downFreq":"439.8500",
		"lat":"25.076240",
		"lon":"117.029280",
		"name":"龙岩439.85",
		"note":"20140816",
		"state":"福建",
		"upFreq":"431.8500"
	},
	{
		"city":"永定",
		"ctcss":"T88.5",
		"downFreq":"439.8500",
		"lat":"24.778064",
		"lon":"116.818301",
		"name":"永定439.85",
		"note":"20140816",
		"state":"福建",
		"upFreq":"431.8500"
	},
	{
		"city":"罗定",
		"ctcss":"T77",
		"downFreq":"439.2300",
		"lat":"22.714107",
		"lon":"111.483790",
		"name":"罗定439.23",
		"note":"20140821",
		"state":"广东",
		"upFreq":"434.2300"
	},
	{
		"city":"河源",
		"ctcss":"T88.5",
		"downFreq":"439.5800",
		"lat":"23.764106",
		"lon":"114.702896",
		"name":"河源439.58",
		"note":"20140816",
		"state":"广东",
		"upFreq":"434.5800"
	},
	{
		"city":"万江",
		"ctcss":"T88.5",
		"downFreq":"439.0500",
		"lat":"23.068775",
		"lon":"113.735888",
		"name":"万江439.05",
		"note":"20140815",
		"state":"广东",
		"upFreq":"434.0500"
	},
	{
		"city":"高山",
		"ctcss":"T82.5",
		"downFreq":"439.4750",
		"lat":"23.571320",
		"lon":"108.905132",
		"name":"高山439.475",
		"note":"20140815",
		"state":"广西",
		"upFreq":"434.4750"
	},
	{
		"city":"佛山",
		"ctcss":"T88.5",
		"downFreq":"439.6500",
		"lat":"23.038160",
		"lon":"113.122977",
		"name":"佛山439.65",
		"note":"20140815",
		"state":"广东",
		"upFreq":"434.6500"
	},
	{
		"city":"高明",
		"ctcss":"T88.5",
		"downFreq":"438.8300",
		"lat":"22.834068",
		"lon":"112.672357",
		"name":"高明438.83",
		"note":"20140815",
		"state":"广东",
		"upFreq":"433.8300"
	},
	{
		"city":"珠海",
		"ctcss":"T82.5",
		"downFreq":"145.5500",
		"lat":"22.232269",
		"lon":"113.567927",
		"name":"珠海145.55",
		"note":"20140815",
		"state":"广东",
		"upFreq":"144.9500"
	},
	{
		"city":"珠海",
		"ctcss":"T82.5",
		"downFreq":"439.7250",
		"lat":"22.263461",
		"lon":"113.540553",
		"name":"珠海439.725",
		"note":"20140815",
		"state":"广东",
		"upFreq":"434.7250"
	},
	{
		"city":"珠海",
		"ctcss":"T88.5",
		"downFreq":"438.0700",
		"lat":"22.259890",
		"lon":"113.574567",
		"name":"珠海438.07",
		"note":"20140815",
		"state":"广东",
		"upFreq":"433.0700"
	},
	{
		"city":"广东三乡",
		"ctcss":"T88.5",
		"downFreq":"438.0700",
		"lat":"24.286647",
		"lon":"116.121671",
		"name":"广东三乡438.07",
		"note":"20140815",
		"state":"广东",
		"upFreq":"433.0700"
	},
	{
		"city":"公明镇",
		"ctcss":"T88.5",
		"downFreq":"438.8750",
		"lat":"22.773892",
		"lon":"113.917397",
		"name":"公明镇438.875",
		"note":"20140815",
		"state":"广东",
		"upFreq":"433.8750"
	},
	{
		"city":"坦洲镇",
		"ctcss":"T82.5",
		"downFreq":"438.6375",
		"lat":"22.274435",
		"lon":"113.474372",
		"name":"坦洲镇438.6375",
		"note":"20140815",
		"state":"广东",
		"upFreq":"433.6375"
	},
	{
		"city":"深圳",
		"ctcss":"T88.5",
		"downFreq":"439.4600",
		"lat":"22.552881",
		"lon":"114.033753",
		"name":"深圳439.46",
		"note":"20140815",
		"state":"广东",
		"upFreq":"434.4600"
	},
	{
		"city":"深圳福田区",
		"ctcss":"T88.5",
		"downFreq":"438.2750",
		"lat":"22.532498",
		"lon":"114.072756",
		"name":"深圳福田区438.275",
		"note":"20140815",
		"state":"广东",
		"upFreq":"433.2750"
	},
	{
		"city":"深圳宝安区",
		"ctcss":"T88.5",
		"downFreq":"438.8500",
		"lat":"22.695070",
		"lon":"113.935791",
		"name":"深圳宝安区438.85",
		"note":"20140815",
		"state":"广东",
		"upFreq":"433.8500"
	},
	{
		"city":"深圳龙岗",
		"ctcss":"T88.5",
		"downFreq":"438.5500",
		"lat":"22.650265",
		"lon":"114.352247",
		"name":"深圳龙岗438.55",
		"note":"20140815",
		"state":"广东",
		"upFreq":"433.5500"
	},
	{
		"city":"南山",
		"ctcss":"T88.5",
		"downFreq":"439.6600",
		"lat":"22.564937",
		"lon":"113.931264",
		"name":"南山439.66",
		"note":"20140828",
		"state":"广东",
		"upFreq":"432.6600"
	},
	{
		"city":"西乡",
		"ctcss":"T88.5",
		"downFreq":"439.6900",
		"lat":"22.579199",
		"lon":"113.911590",
		"name":"西乡439.69",
		"note":"20140828",
		"state":"广东",
		"upFreq":"434.6900"
	},
	{
		"city":"番禺",
		"ctcss":"T88.5",
		"downFreq":"439.1500",
		"lat":"22.943589",
		"lon":"113.392259",
		"name":"番禺439.15",
		"note":"20140815",
		"state":"广东",
		"upFreq":"434.1500"
	},
	{
		"city":"番禺",
		"ctcss":"T88.5",
		"downFreq":"437.8000",
		"lat":"22.943219",
		"lon":"113.414710",
		"name":"番禺437.8",
		"note":"20140815",
		"state":"广东",
		"upFreq":"432.8000"
	},
	{
		"city":"顺德",
		"ctcss":"T88.5",
		"downFreq":"439.6600",
		"lat":"22.830024",
		"lon":"113.179369",
		"name":"顺德439.66",
		"note":"20140815",
		"state":"广东",
		"upFreq":"434.6600"
	},
	{
		"city":"龙江",
		"ctcss":"T88.5",
		"downFreq":"437.3800",
		"lat":"23.400031",
		"lon":"113.397788",
		"name":"龙江437.38",
		"note":"20140815",
		"state":"广东",
		"upFreq":"432.3800"
	},
	{
		"city":"布吉",
		"ctcss":"T88.5",
		"downFreq":"438.2000",
		"lat":"22.598026",
		"lon":"114.108732",
		"name":"布吉438.2",
		"note":"20140815",
		"state":"广东",
		"upFreq":"433.2000"
	},
	{
		"city":"德庆",
		"ctcss":"T88.5",
		"downFreq":"439.1650",
		"lat":"23.262931",
		"lon":"111.996402",
		"name":"德庆439.165",
		"note":"20140815",
		"state":"广东",
		"upFreq":"434.1650"
	},
	{
		"city":"清远",
		"ctcss":"T88.5",
		"downFreq":"439.4350",
		"lat":"23.710677",
		"lon":"113.061652",
		"name":"清远439.435",
		"note":"20140815",
		"state":"广东",
		"upFreq":"434.4350"
	},
	{
		"city":"清远",
		"ctcss":"T88.5",
		"downFreq":"438.5750",
		"lat":"23.690419",
		"lon":"113.041073",
		"name":"清远438.575",
		"note":"20140815",
		"state":"广东",
		"upFreq":"433.5750"
	},
	{
		"city":"阳春",
		"ctcss":"T88.5",
		"downFreq":"439.6800",
		"lat":"22.200070",
		"lon":"111.673544",
		"name":"阳春439.680",
		"note":"20140815",
		"state":"广东",
		"upFreq":"434.6800"
	},
	{
		"city":"广州",
		"ctcss":"T118.8",
		"downFreq":"436.9300",
		"lat":"23.125855",
		"lon":"113.311282",
		"name":"广州436.93",
		"note":"20140815",
		"state":"广东",
		"upFreq":"430.2600"
	},
	{
		"city":"花都",
		"ctcss":"T88.5",
		"downFreq":"438.1100",
		"lat":"23.454293",
		"lon":"113.242628",
		"name":"花都438.11",
		"note":"20140815",
		"state":"广东",
		"upFreq":"433.1100"
	},
	{
		"city":"花都",
		"ctcss":"T88.5",
		"downFreq":"439.2000",
		"lat":"23.437260",
		"lon":"113.197132",
		"name":"花都439.2",
		"note":"20140815",
		"state":"广东",
		"upFreq":"434.2000"
	},
	{
		"city":"花都",
		"ctcss":"T88.5",
		"downFreq":"437.3500",
		"lat":"23.446095",
		"lon":"113.235200",
		"name":"花都437.35",
		"note":"20140815",
		"state":"广东",
		"upFreq":"432.3500"
	},
	{
		"city":"花都",
		"ctcss":"T100",
		"downFreq":"438.1100",
		"lat":"23.445585",
		"lon":"113.208585",
		"name":"花都438.11",
		"note":"20140828",
		"state":"广东",
		"upFreq":"430.1100"
	},
	{
		"city":"陆河县",
		"ctcss":"T88.5",
		"downFreq":"439.9000",
		"lat":"23.275501",
		"lon":"115.620859",
		"name":"陆河县439.9",
		"note":"20140815",
		"state":"广东",
		"upFreq":"434.9000"
	},
	{
		"city":"梅州",
		"ctcss":"T88.5",
		"downFreq":"438.6500",
		"lat":"24.310967",
		"lon":"116.147934",
		"name":"梅州438.65",
		"note":"20140815",
		"state":"广东",
		"upFreq":"433.6500"
	},
	{
		"city":"普宁",
		"ctcss":"T88.5",
		"downFreq":"439.2800",
		"lat":"23.298150",
		"lon":"116.060851",
		"name":"普宁439.28",
		"note":"20140815",
		"state":"广东",
		"upFreq":"434.2800"
	},
	{
		"city":"茂名",
		"ctcss":"T88.5",
		"downFreq":"439.2500",
		"lat":"21.687678",
		"lon":"110.937052",
		"name":"茂名439.25",
		"note":"20140815",
		"state":"广东",
		"upFreq":"434.2500"
	},
	{
		"city":"高州",
		"ctcss":"T88.5",
		"downFreq":"439.1250",
		"lat":"22.034662",
		"lon":"110.966203",
		"name":"高州439.125",
		"note":"20140828",
		"state":"广东",
		"upFreq":"434.1250"
	},
	{
		"city":"信宜",
		"ctcss":"T88.5",
		"downFreq":"439.9750",
		"lat":"22.425256",
		"lon":"111.124360",
		"name":"信宜439.975",
		"note":"20140828",
		"state":"广东",
		"upFreq":"434.9750"
	},
	{
		"city":"江门",
		"ctcss":"T88.5",
		"downFreq":"439.9450",
		"lat":"22.557201",
		"lon":"113.087614",
		"name":"江门439.945",
		"note":"20140827",
		"state":"广东",
		"upFreq":"434.9450"
	},
	{
		"city":"潮州",
		"ctcss":"T88.5",
		"downFreq":"439.7250",
		"lat":"23.650753",
		"lon":"116.619966",
		"name":"潮州439.725",
		"note":"20140815覆盖潮汕三市",
		"state":"广东",
		"upFreq":"434.7250"
	},
	{
		"city":"柳州",
		"ctcss":"T88.5",
		"downFreq":"439.8000",
		"lat":"24.330439",
		"lon":"109.407388",
		"name":"柳州439.8",
		"note":"20140815",
		"state":"广西",
		"upFreq":"430.2000"
	},
	{
		"city":"梧州",
		"ctcss":"T88.5",
		"downFreq":"439.9250",
		"lat":"23.506309",
		"lon":"111.315291",
		"name":"梧州439.925",
		"note":"20140815",
		"state":"广西",
		"upFreq":"434.9250"
	},
	{
		"city":"北海",
		"ctcss":"T88.5",
		"downFreq":"438.8000",
		"lat":"21.453876",
		"lon":"109.141295",
		"name":"北海438.8",
		"note":"20140815",
		"state":"广西",
		"upFreq":"433.8000"
	},
	{
		"city":"钦州市区",
		"ctcss":"T88.5",
		"downFreq":"439.2250",
		"lat":"21.978728",
		"lon":"108.636988",
		"name":"钦州市区439.225",
		"note":"20140815",
		"state":"广西",
		"upFreq":"431.2250"
	},
	{
		"city":"钦州高山",
		"ctcss":"T88.5",
		"downFreq":"439.4000",
		"lat":"21.949365",
		"lon":"108.620372",
		"name":"钦州高山439.4",
		"note":"20140815",
		"state":"广西",
		"upFreq":"431.4000"
	},
	{
		"city":"钦州港区",
		"ctcss":"T88.5",
		"downFreq":"439.1000",
		"lat":"21.969501",
		"lon":"108.654304",
		"name":"钦州港区439.1",
		"note":"20140815",
		"state":"广西",
		"upFreq":"431.1000"
	},
	{
		"city":"防城港港口区",
		"ctcss":"TSQ88.5",
		"downFreq":"438.6500",
		"lat":"21.644233",
		"lon":"108.438511",
		"name":"防城港港口区438.65",
		"note":"20140825",
		"state":"广西",
		"upFreq":"430.6500"
	},
	{
		"city":"玉林",
		"ctcss":"T88.5",
		"downFreq":"439.5000",
		"lat":"22.620963",
		"lon":"110.158513",
		"name":"玉林439.5",
		"note":"20140815",
		"state":"广西",
		"upFreq":"434.5000"
	},
	{
		"city":"玉林",
		"ctcss":"T88.5",
		"downFreq":"439.7000",
		"lat":"22.630668",
		"lon":"110.129179",
		"name":"玉林439.7",
		"note":"20140815",
		"state":"广西",
		"upFreq":"434.7000"
	},
	{
		"city":"贺州",
		"ctcss":"T88.5",
		"downFreq":"438.8000",
		"lat":"24.418491",
		"lon":"111.563059",
		"name":"贺州438.8",
		"note":"20140815",
		"state":"广西",
		"upFreq":"433.4000"
	},
	{
		"city":"桂平",
		"ctcss":"T67",
		"downFreq":"439.0250",
		"lat":"23.324939",
		"lon":"110.072998",
		"name":"桂平439.025",
		"note":"20140815",
		"state":"广西",
		"upFreq":"434.0250"
	},
	{
		"city":"北流",
		"ctcss":"T88.5",
		"downFreq":"439.8250",
		"lat":"22.545726",
		"lon":"110.484695",
		"name":"北流439.825",
		"note":"20140815",
		"state":"广西",
		"upFreq":"434.8250"
	},
	{
		"city":"北流城区",
		"ctcss":"T88.5",
		"downFreq":"439.6000",
		"lat":"22.528643",
		"lon":"110.462754",
		"name":"北流城区439.6",
		"note":"20140815",
		"state":"广西",
		"upFreq":"434.6000"
	},
	{
		"city":"横县",
		"ctcss":"T88.5",
		"downFreq":"439.8750",
		"lat":"22.781002",
		"lon":"109.144699",
		"name":"横县439.875",
		"note":"20140815",
		"state":"广西",
		"upFreq":"430.8750"
	},
	{
		"city":"新乐",
		"ctcss":"T88.5",
		"downFreq":"439.6000",
		"lat":"38.392071",
		"lon":"114.754487",
		"name":"新乐439.6",
		"note":"20140828",
		"state":"河北",
		"upFreq":"434.6000"
	},
	{
		"city":"邢台",
		"ctcss":"T88.5",
		"downFreq":"439.7500",
		"lat":"37.074683",
		"lon":"114.513203",
		"name":"邢台439.75",
		"note":"20140823",
		"state":"河北",
		"upFreq":"434.7500"
	},
	{
		"city":"辛集",
		"ctcss":"T88.5",
		"downFreq":"439.6750",
		"lat":"37.946012",
		"lon":"115.279850",
		"name":"辛集439.675",
		"note":"20140814",
		"state":"河北",
		"upFreq":"434.6750"
	},
	{
		"city":"黄骅",
		"ctcss":"T118.8",
		"downFreq":"439.7750",
		"lat":"38.397403",
		"lon":"117.375480",
		"name":"黄骅439.775",
		"note":"20140814",
		"state":"河北",
		"upFreq":"432.5250"
	},
	{
		"city":"邯郸",
		"ctcss":"T110.9",
		"downFreq":"439.8000",
		"lat":"36.603765",
		"lon":"114.490399",
		"name":"邯郸439.8",
		"note":"20140814",
		"state":"河北",
		"upFreq":"431.8000"
	},
	{
		"city":"河间",
		"ctcss":"T88.5",
		"downFreq":"439.0250",
		"lat":"38.475602",
		"lon":"116.259695",
		"name":"河间439.025",
		"note":"20140814",
		"state":"河北",
		"upFreq":"433.0250"
	},
	{
		"city":"衡水",
		"ctcss":"T67",
		"downFreq":"147.8100",
		"lat":"37.747645",
		"lon":"115.681633",
		"name":"衡水147.81",
		"note":"20140814",
		"state":"河北",
		"upFreq":"144.1600"
	},
	{
		"city":"定州",
		"ctcss":"T74.4",
		"downFreq":"439.7000",
		"lat":"38.445825",
		"lon":"115.040193",
		"name":"定州439.7",
		"note":"20140814",
		"state":"河北",
		"upFreq":"434.7000"
	},
	{
		"city":"承德",
		"ctcss":"T103.5",
		"downFreq":"439.1250",
		"lat":"40.977557",
		"lon":"117.935736",
		"name":"承德439.125",
		"note":"20140814",
		"state":"河北",
		"upFreq":"431.1250"
	},
	{
		"city":"肃宁",
		"ctcss":"T88.5",
		"downFreq":"439.6700",
		"lat":"38.427801",
		"lon":"115.878170",
		"name":"肃宁439.67",
		"note":"20140814",
		"state":"河北",
		"upFreq":"431.6700"
	},
	{
		"city":"肃宁",
		"ctcss":"T88.5",
		"downFreq":"439.6750",
		"lat":"38.400229",
		"lon":"115.876760",
		"name":"肃宁439.675",
		"note":"20140814",
		"state":"河北",
		"upFreq":"431.6750"
	},
	{
		"city":"任丘",
		"ctcss":"T100",
		"downFreq":"438.5750",
		"lat":"38.728692",
		"lon":"116.185972",
		"name":"任丘438.575",
		"note":"20140814",
		"state":"河北",
		"upFreq":"433.5750"
	},
	{
		"city":"白沟",
		"ctcss":"T82.5",
		"downFreq":"438.9250",
		"lat":"40.477829",
		"lon":"114.346303",
		"name":"白沟438.925",
		"note":"20140814",
		"state":"河北",
		"upFreq":"433.4250"
	},
	{
		"city":"张家口",
		"ctcss":"T88.5",
		"downFreq":"439.2250",
		"lat":"40.825894",
		"lon":"114.900875",
		"name":"张家口439.225",
		"note":"20140814",
		"state":"河北",
		"upFreq":"434.2250"
	},
	{
		"city":"文安",
		"ctcss":"T88.5",
		"downFreq":"439.4500",
		"lat":"38.903485",
		"lon":"116.513248",
		"name":"文安439.45",
		"note":"20140814",
		"state":"河北",
		"upFreq":"434.4500"
	},
	{
		"city":"唐山",
		"ctcss":"T88.5",
		"downFreq":"438.1650",
		"lat":"39.648325",
		"lon":"118.163730",
		"name":"唐山438.165",
		"note":"20140814",
		"state":"河北",
		"upFreq":"431.1650"
	},
	{
		"city":"唐山",
		"ctcss":"T88.5",
		"downFreq":"438.1850",
		"lat":"39.644133",
		"lon":"118.190058",
		"name":"唐山438.185",
		"note":"20140814",
		"state":"河北",
		"upFreq":"431.1850"
	},
	{
		"city":"石家庄",
		"ctcss":"T88.5",
		"downFreq":"147.8850",
		"lat":"38.069007",
		"lon":"114.502738",
		"name":"石家庄147.885",
		"note":"20140814",
		"state":"河北",
		"upFreq":"144.0850"
	},
	{
		"city":"石家庄",
		"ctcss":"T88.5",
		"downFreq":"439.5000",
		"lat":"38.073672",
		"lon":"114.530092",
		"name":"石家庄439.5",
		"note":"20140814",
		"state":"河北",
		"upFreq":"434.5000"
	},
	{
		"city":"宣化",
		"ctcss":"T100",
		"downFreq":"439.7500",
		"lat":"40.644657",
		"lon":"115.264482",
		"name":"宣化439.75",
		"note":"20140814",
		"state":"河北",
		"upFreq":"434.7500"
	},
	{
		"city":"临湘",
		"ctcss":"T97.4",
		"downFreq":"147.9500",
		"lat":"29.491772",
		"lon":"113.511946",
		"name":"临湘147.95",
		"note":"20140814",
		"state":"湖南",
		"upFreq":"144.1250"
	},
	{
		"city":"临湘",
		"ctcss":"T88.5",
		"downFreq":"439.7500",
		"lat":"29.479816",
		"lon":"113.505026",
		"name":"临湘439.75",
		"note":"20140814",
		"state":"湖南",
		"upFreq":"434.7500"
	},
	{
		"city":"云溪",
		"ctcss":"T123",
		"downFreq":"147.9700",
		"lat":"29.531903",
		"lon":"113.374601",
		"name":"云溪147.97",
		"note":"20140814",
		"state":"湖南",
		"upFreq":"144.1000"
	},
	{
		"city":"云溪",
		"ctcss":"T123",
		"downFreq":"439.9700",
		"lat":"29.516288",
		"lon":"113.347724",
		"name":"云溪439.97",
		"note":"20140814",
		"state":"湖南",
		"upFreq":"430.9700"
	},
	{
		"city":"岳阳",
		"ctcss":"T88.5",
		"downFreq":"438.7850",
		"lat":"29.393048",
		"lon":"113.148658",
		"name":"岳阳438.785",
		"note":"20140814",
		"state":"湖南",
		"upFreq":"431.7850"
	},
	{
		"city":"岳阳",
		"ctcss":"T123",
		"downFreq":"147.9200",
		"lat":"29.382926",
		"lon":"113.129461",
		"name":"岳阳147.92",
		"note":"20140814",
		"state":"湖南",
		"upFreq":"144.0700"
	},
	{
		"city":"岳阳",
		"ctcss":"T88.5",
		"downFreq":"438.5500",
		"lat":"29.365567",
		"lon":"113.168972",
		"name":"岳阳438.55",
		"note":"20140814",
		"state":"湖南",
		"upFreq":"433.5500"
	},
	{
		"city":"安乡",
		"ctcss":"T88.5",
		"downFreq":"438.6500",
		"lat":"29.459845",
		"lon":"112.144113",
		"name":"安乡438.65",
		"note":"20140814",
		"state":"湖南",
		"upFreq":"433.6500"
	},
	{
		"city":"常德",
		"ctcss":"T88.5",
		"downFreq":"147.8250",
		"lat":"29.031218",
		"lon":"111.660274",
		"name":"常德147.825",
		"note":"20140814",
		"state":"湖南",
		"upFreq":"144.0250"
	},
	{
		"city":"益阳",
		"ctcss":"T88.5",
		"downFreq":"438.1500",
		"lat":"28.573585",
		"lon":"112.373709",
		"name":"益阳438.15",
		"note":"20140814",
		"state":"湖南",
		"upFreq":"433.1500"
	},
	{
		"city":"长沙",
		"ctcss":"T67",
		"downFreq":"147.9800",
		"lat":"28.196751",
		"lon":"112.985191",
		"name":"长沙147.98",
		"note":"20140814",
		"state":"湖南",
		"upFreq":"144.1050"
	},
	{
		"city":"长沙",
		"ctcss":"T88.5",
		"downFreq":"439.9000",
		"lat":"28.198808",
		"lon":"112.968066",
		"name":"长沙439.9",
		"note":"20140814",
		"state":"湖南",
		"upFreq":"430.9000"
	},
	{
		"city":"浏阳",
		"ctcss":"T100",
		"downFreq":"147.9600",
		"lat":"28.234272",
		"lon":"113.726493",
		"name":"浏阳147.96",
		"note":"20140814",
		"state":"湖南",
		"upFreq":"144.1250"
	},
	{
		"city":"湘潭",
		"ctcss":"T88.5",
		"downFreq":"147.9250",
		"lat":"27.825722",
		"lon":"112.940805",
		"name":"湘潭147.925",
		"note":"20140814",
		"state":"湖南",
		"upFreq":"144.1250"
	},
	{
		"city":"湘乡",
		"ctcss":"T88.5",
		"downFreq":"147.9500",
		"lat":"27.761440",
		"lon":"112.365001",
		"name":"湘乡147.95",
		"note":"20140814",
		"state":"湖南",
		"upFreq":"144.1500"
	},
	{
		"city":"株洲",
		"ctcss":"T88.5",
		"downFreq":"438.3875",
		"lat":"27.830728",
		"lon":"113.115232",
		"name":"株洲438.3875",
		"note":"20140814",
		"state":"湖南",
		"upFreq":"433.3875"
	},
	{
		"city":"株洲",
		"ctcss":"T88.5",
		"downFreq":"439.9625",
		"lat":"27.825734",
		"lon":"113.146946",
		"name":"株洲439.9625",
		"note":"20140814",
		"state":"湖南",
		"upFreq":"430.0625"
	},
	{
		"city":"娄底",
		"ctcss":"T88.5",
		"downFreq":"147.8500",
		"lat":"27.756672",
		"lon":"112.019267",
		"name":"娄底147.85",
		"note":"20140814",
		"state":"湖南",
		"upFreq":"144.0500"
	},
	{
		"city":"邵阳",
		"ctcss":"T88.5",
		"downFreq":"439.4750",
		"lat":"27.222876",
		"lon":"111.471596",
		"name":"邵阳439.475",
		"note":"20140814",
		"state":"湖南",
		"upFreq":"434.4750"
	},
	{
		"city":"衡阳",
		"ctcss":"T88.5",
		"downFreq":"438.0750",
		"lat":"26.913856",
		"lon":"112.581254",
		"name":"衡阳438.075",
		"note":"20140815",
		"state":"湖南",
		"upFreq":"433.0750"
	},
	{
		"city":"冷水滩",
		"ctcss":"T88.5",
		"downFreq":"439.5500",
		"lat":"26.579255",
		"lon":"111.626499",
		"name":"冷水滩439.55",
		"note":"20140815",
		"state":"湖南",
		"upFreq":"430.5500"
	},
	{
		"city":"郴州苏仙区",
		"ctcss":"T100",
		"downFreq":"439.2750",
		"lat":"25.779620",
		"lon":"113.075267",
		"name":"郴州苏仙区439.275",
		"note":"20140815",
		"state":"湖南",
		"upFreq":"430.2750"
	},
	{
		"city":"浏阳",
		"ctcss":"T100",
		"downFreq":"147.7250",
		"lat":"28.217627",
		"lon":"113.723210",
		"name":"浏阳147.725",
		"note":"20140815",
		"state":"湖南",
		"upFreq":"144.7250"
	},
	{
		"city":"沅陵",
		"ctcss":"T88.5",
		"downFreq":"439.4000",
		"lat":"28.552777",
		"lon":"110.606451",
		"name":"沅陵439.4",
		"note":"20140815",
		"state":"湖南",
		"upFreq":"433.4000"
	},
	{
		"city":"隆回",
		"ctcss":"T88.5",
		"downFreq":"147.8500",
		"lat":"27.351074",
		"lon":"110.988237",
		"name":"隆回147.85",
		"note":"20140815",
		"state":"湖南",
		"upFreq":"144.0500"
	},
	{
		"city":"郴州",
		"ctcss":"T88.5",
		"downFreq":"147.9000",
		"lat":"25.787301",
		"lon":"113.033941",
		"name":"郴州147.9",
		"note":"20140815",
		"state":"湖南",
		"upFreq":"144.1000"
	},
	{
		"city":"张家界",
		"ctcss":"T233.6",
		"downFreq":"157.5750",
		"lat":"29.139205",
		"lon":"110.458232",
		"name":"张家界157.575",
		"note":"20140815",
		"state":"湖南",
		"upFreq":"163.2750"
	},
	{
		"city":"湘潭",
		"ctcss":"T88.5",
		"downFreq":"439.7750",
		"lat":"27.834414",
		"lon":"112.929082",
		"name":"湘潭439.775",
		"note":"20140815",
		"state":"湖南",
		"upFreq":"434.7750"
	},
	{
		"city":"宝鸡",
		"ctcss":"T88.5",
		"downFreq":"147.9500",
		"lat":"34.384772",
		"lon":"107.190279",
		"name":"宝鸡147.95",
		"note":"20140815",
		"state":"陕西",
		"upFreq":"144.1500"
	},
	{
		"city":"宝鸡",
		"ctcss":"T88.5",
		"downFreq":"439.8500",
		"lat":"34.341085",
		"lon":"107.185832",
		"name":"宝鸡439.85",
		"note":"20140826",
		"state":"陕西",
		"upFreq":"433.6500"
	},
	{
		"city":"榆林",
		"ctcss":"T88.5",
		"downFreq":"147.8950",
		"lat":"38.274831",
		"lon":"109.770367",
		"name":"榆林147.895",
		"note":"20140815",
		"state":"陕西",
		"upFreq":"144.0950"
	},
	{
		"city":"西安",
		"ctcss":"T88.5",
		"downFreq":"147.9200",
		"lat":"34.288878",
		"lon":"108.938658",
		"name":"西安147.92",
		"note":"20140815",
		"state":"陕西",
		"upFreq":"144.1200"
	},
	{
		"city":"西安",
		"ctcss":"T88.5",
		"downFreq":"439.4000",
		"lat":"34.286910",
		"lon":"108.971345",
		"name":"西安439.4",
		"note":"20140816",
		"state":"陕西",
		"upFreq":"430.4000"
	},
	{
		"city":"西安",
		"ctcss":"T88.5",
		"downFreq":"439.9000",
		"lat":"34.280015",
		"lon":"108.944001",
		"name":"西安439.9",
		"note":"20140816",
		"state":"陕西",
		"upFreq":"431.6750"
	},
	{
		"city":"歌乐山",
		"ctcss":"T88.5",
		"downFreq":"147.9000",
		"lat":"29.583598",
		"lon":"106.421715",
		"name":"歌乐山147.9",
		"note":"20140818",
		"state":"重庆",
		"upFreq":"144.4500"
	},
	{
		"city":"武陵山",
		"ctcss":"T88.5",
		"downFreq":"147.8750",
		"lat":"29.538327",
		"lon":"108.646463",
		"name":"武陵山147.875",
		"note":"20140815",
		"state":"重庆",
		"upFreq":"144.4250"
	},
	{
		"city":"重庆",
		"ctcss":"T88.5",
		"downFreq":"145.6700",
		"lat":"29.536806",
		"lon":"106.515042",
		"name":"重庆145.67",
		"note":"20140815",
		"state":"重庆",
		"upFreq":"144.1300"
	},
	{
		"city":"茶山",
		"ctcss":"T88.5",
		"downFreq":"147.9950",
		"lat":"29.559424",
		"lon":"106.545782",
		"name":"茶山147.995",
		"note":"20140815",
		"state":"重庆",
		"upFreq":"144.2000"
	},
	{
		"city":"南山",
		"ctcss":"T88.5",
		"downFreq":"147.9750",
		"lat":"29.538198",
		"lon":"106.549090",
		"name":"南山147.975",
		"note":"20140815",
		"state":"重庆",
		"upFreq":"144.4750"
	},
	{
		"city":"缙云山",
		"ctcss":"T79.7",
		"downFreq":"147.2750",
		"lat":"29.843159",
		"lon":"106.380318",
		"name":"缙云山147.275",
		"note":"20140815",
		"state":"重庆",
		"upFreq":"141.5750"
	},
	{
		"city":"歌乐山蜂鸟",
		"ctcss":"T88.5",
		"downFreq":"147.8500",
		"lat":"29.561340",
		"lon":"106.423042",
		"name":"歌乐山蜂鸟147.85",
		"note":"20140815",
		"state":"重庆",
		"upFreq":"144.5500"
	},
	{
		"city":"歌乐山蜂鸟",
		"ctcss":"-2.83",
		"downFreq":"2.0000",
		"lat":"29.597342",
		"lon":"106.406783",
		"name":"歌乐山蜂鸟2",
		"note":"T88.5/20140815",
		"state":"重庆",
		"upFreq":"149.3000"
	},
	{
		"city":"歌乐山蜂鸟",
		"ctcss":"-5",
		"downFreq":"3.0000",
		"lat":"29.592631",
		"lon":"106.409812",
		"name":"歌乐山蜂鸟3",
		"note":"T118.8/20140815",
		"state":"重庆",
		"upFreq":"442.5500"
	},
	{
		"city":"长城菁英会",
		"ctcss":"T82.5",
		"downFreq":"147.8050",
		"lat":"28.435410",
		"lon":"107.736985",
		"name":"长城菁英会147.805",
		"note":"20140815",
		"state":"重庆",
		"upFreq":"144.0050"
	},
	{
		"city":"开县",
		"ctcss":"T91.5",
		"downFreq":"147.8750",
		"lat":"31.284468",
		"lon":"108.407649",
		"name":"开县147.875",
		"note":"20140815",
		"state":"重庆",
		"upFreq":"144.0750"
	},
	{
		"city":"中梁山",
		"ctcss":"T88.5",
		"downFreq":"147.8250",
		"lat":"29.663367",
		"lon":"106.395884",
		"name":"中梁山147.825",
		"note":"20140815",
		"state":"重庆",
		"upFreq":"144.5250"
	},
	{
		"city":"巴南",
		"ctcss":"T88.5",
		"downFreq":"147.6750",
		"lat":"29.401232",
		"lon":"106.777364",
		"name":"巴南147.675",
		"note":"20140815",
		"state":"重庆",
		"upFreq":"144.1750"
	},
	{
		"city":"青鸟",
		"ctcss":"T88.5",
		"downFreq":"147.6300",
		"lat":"29.531277",
		"lon":"106.545037",
		"name":"青鸟147.63",
		"note":"20140815",
		"state":"重庆",
		"upFreq":"144.3300"
	},
	{
		"city":"众泰车友会",
		"ctcss":"T79.7",
		"downFreq":"147.9050",
		"lat":"29.551894",
		"lon":"106.547505",
		"name":"众泰车友会147.905",
		"note":"20140815",
		"state":"重庆",
		"upFreq":"144.5050"
	},
	{
		"city":"万州",
		"ctcss":"-7",
		"downFreq":"1.0000",
		"lat":"30.694280",
		"lon":"108.404592",
		"name":"万州1",
		"note":"T88.5/20140815",
		"state":"重庆",
		"upFreq":"440.8000"
	},
	{
		"city":"万州",
		"ctcss":"-7",
		"downFreq":"2.0000",
		"lat":"30.695622",
		"lon":"108.420131",
		"name":"万州2",
		"note":"T88.5/20140815",
		"state":"重庆",
		"upFreq":"440.8000"
	},
	{
		"city":"万州",
		"ctcss":"-3.8",
		"downFreq":"3.0000",
		"lat":"30.702505",
		"lon":"108.437527",
		"name":"万州3",
		"note":"T79.7/20140815",
		"state":"重庆",
		"upFreq":"150.9750"
	},
	{
		"city":"万州",
		"ctcss":"-8",
		"downFreq":"4.0000",
		"lat":"30.721703",
		"lon":"108.421683",
		"name":"万州4",
		"note":"T79.7/20140815",
		"state":"重庆",
		"upFreq":"443.2150"
	},
	{
		"city":"临江",
		"ctcss":"T79.7",
		"downFreq":"148.8750",
		"lat":"29.529654",
		"lon":"106.519432",
		"name":"临江148.875",
		"note":"20140815",
		"state":"重庆",
		"upFreq":"143.8750"
	},
	{
		"city":"达州市",
		"ctcss":"T88.5",
		"downFreq":"147.8250",
		"name":"达州市147.825",
		"note":"20140815",
		"state":"重庆",
		"upFreq":"144.1750"
	},
	{
		"city":"达州市",
		"ctcss":"T118.8",
		"downFreq":"439.4000",
		"name":"达州市439.4",
		"note":"20140815",
		"state":"重庆",
		"upFreq":"434.4000"
	},
	{
		"city":"达州蓝天救援队",
		"ctcss":"T118.8",
		"downFreq":"439.6750",
		"lat":"20.032164",
		"lon":"110.346630",
		"name":"达州蓝天救援队439.675",
		"note":"20140815",
		"state":"重庆",
		"upFreq":"431.6750"
	},
	{
		"city":"遵义",
		"ctcss":"T88.5",
		"downFreq":"147.9600",
		"lat":"27.722113",
		"lon":"106.906479",
		"name":"遵义147.96",
		"note":"20140814",
		"state":"贵州",
		"upFreq":"144.0600"
	},
	{
		"city":"遵义",
		"ctcss":"T88.5",
		"downFreq":"439.8500",
		"lat":"27.688969",
		"lon":"106.908357",
		"name":"遵义439.85",
		"note":"20140814",
		"state":"贵州",
		"upFreq":"431.8500"
	},
	{
		"city":"贵阳",
		"ctcss":"T88.5",
		"downFreq":"147.9600",
		"lat":"26.630863",
		"lon":"106.707455",
		"name":"贵阳147.96",
		"note":"20140814",
		"state":"贵州",
		"upFreq":"144.0600"
	},
	{
		"city":"贵阳",
		"ctcss":"T71.9",
		"downFreq":"439.4500",
		"lat":"26.626685",
		"lon":"106.719484",
		"name":"贵阳439.45",
		"note":"20140814",
		"state":"贵州",
		"upFreq":"434.4500"
	},
	{
		"city":"贵阳",
		"ctcss":"T88.5",
		"downFreq":"439.8500",
		"lat":"26.648294",
		"lon":"106.729386",
		"name":"贵阳439.85",
		"note":"20140814",
		"state":"贵州",
		"upFreq":"434.8500"
	},
	{
		"city":"六盘水",
		"ctcss":"T88.5",
		"downFreq":"439.8500",
		"lat":"26.608417",
		"lon":"104.873952",
		"name":"六盘水439.85",
		"note":"20140814",
		"state":"贵州",
		"upFreq":"431.8500"
	},
	{
		"city":"大理",
		"ctcss":"T88.5",
		"downFreq":"147.8750",
		"lat":"25.678063",
		"lon":"100.217909",
		"name":"大理147.875",
		"note":"主要覆盖大理市区，洱海大部分地区/20140815",
		"state":"云南",
		"upFreq":"144.0750"
	},
	{
		"city":"大理",
		"ctcss":"T00",
		"downFreq":"438.3500",
		"lat":"25.672313",
		"lon":"100.205999",
		"name":"大理438.35",
		"note":"主要覆盖苍山，洱海，部分市区。（问吃，问路，问玩，大理HAM热情守候！）20140815",
		"state":"云南",
		"upFreq":"430.3500"
	},
	{
		"city":"楚雄",
		"ctcss":"T88.5",
		"downFreq":"435.1500",
		"lat":"24.889434",
		"lon":"101.331811",
		"name":"楚雄435.15",
		"note":"20140815",
		"state":"云南",
		"upFreq":"430.1500"
	},
	{
		"city":"曲靖",
		"ctcss":"T85.4",
		"downFreq":"147.9250",
		"lat":"25.506638",
		"lon":"103.791789",
		"name":"曲靖147.925",
		"note":"20140815",
		"state":"云南",
		"upFreq":"144.1250"
	},
	{
		"city":"曲靖",
		"ctcss":"T88.5",
		"downFreq":"147.9500",
		"lat":"25.531498",
		"lon":"103.799220",
		"name":"曲靖147.95",
		"note":"20140815",
		"state":"云南",
		"upFreq":"144.0500"
	},
	{
		"city":"石林",
		"ctcss":"T77",
		"downFreq":"147.8750",
		"lat":"24.752214",
		"lon":"103.448758",
		"name":"石林147.875",
		"note":"20140815",
		"state":"云南",
		"upFreq":"144.0750"
	},
	{
		"city":"玉溪",
		"ctcss":"T88.5",
		"downFreq":"147.9250",
		"lat":"24.381139",
		"lon":"102.539084",
		"name":"玉溪147.925",
		"note":"20140815",
		"state":"云南",
		"upFreq":"144.0250"
	},
	{
		"city":"香格里拉",
		"ctcss":"T00",
		"downFreq":"439.8000",
		"lat":"27.919271",
		"lon":"99.843355",
		"name":"香格里拉439.8",
		"note":"20140815",
		"state":"云南",
		"upFreq":"434.8000"
	},
	{
		"city":"鲁甸",
		"ctcss":"T88.5",
		"downFreq":"439.4350",
		"lat":"27.211028",
		"lon":"103.431394",
		"name":"鲁甸439.435",
		"note":"20140815",
		"state":"云南",
		"upFreq":"431.9350"
	},
	{
		"city":"襄城",
		"ctcss":"T88.5",
		"downFreq":"439.9500",
		"lat":"33.846133",
		"lon":"113.564564",
		"name":"襄城439.95",
		"note":"20140815",
		"state":"河南",
		"upFreq":"433.9500"
	},
	{
		"city":"漯河",
		"ctcss":"T88.5",
		"downFreq":"439.6000",
		"lat":"33.582855",
		"lon":"114.045335",
		"name":"漯河439.6",
		"note":"20140815",
		"state":"河南",
		"upFreq":"433.6000"
	},
	{
		"city":"安阳",
		"ctcss":"T88.5",
		"downFreq":"439.6000",
		"lat":"36.091628",
		"lon":"114.354359",
		"name":"安阳439.6",
		"note":"20140815",
		"state":"河南",
		"upFreq":"433.6000"
	},
	{
		"city":"安阳",
		"ctcss":"T88.5",
		"downFreq":"438.9500",
		"lat":"36.086810",
		"lon":"114.333860",
		"name":"安阳438.95",
		"note":"20140815",
		"state":"河南",
		"upFreq":"431.9500"
	},
	{
		"city":"内黄",
		"ctcss":"T88.5",
		"downFreq":"439.7500",
		"lat":"35.906870",
		"lon":"114.847492",
		"name":"内黄439.75",
		"note":"20140815",
		"state":"河南",
		"upFreq":"431.7500"
	},
	{
		"city":"滑县",
		"ctcss":"T88.5",
		"downFreq":"439.2750",
		"lat":"35.479511",
		"lon":"114.668822",
		"name":"滑县439.275",
		"note":"20140815",
		"state":"河南",
		"upFreq":"434.2750"
	},
	{
		"city":"焦作",
		"ctcss":"T100",
		"downFreq":"439.9000",
		"lat":"35.227320",
		"lon":"113.190111",
		"name":"焦作439.9",
		"note":"20140815",
		"state":"河南",
		"upFreq":"434.9000"
	},
	{
		"city":"许昌",
		"ctcss":"T88.5",
		"downFreq":"439.6250",
		"lat":"34.046903",
		"lon":"113.846250",
		"name":"许昌439.625",
		"note":"20140815",
		"state":"河南",
		"upFreq":"432.6250"
	},
	{
		"city":"新郑",
		"ctcss":"T88.5",
		"downFreq":"147.9000",
		"lat":"34.457320",
		"lon":"113.746814",
		"name":"新郑147.9",
		"note":"20140815",
		"state":"河南",
		"upFreq":"144.1000"
	},
	{
		"city":"三门峡",
		"ctcss":"T00",
		"downFreq":"439.0250",
		"lat":"34.803713",
		"lon":"111.204594",
		"name":"三门峡439.025",
		"note":"20140815",
		"state":"河南",
		"upFreq":"430.0250"
	},
	{
		"city":"济源",
		"ctcss":"T88.5",
		"downFreq":"439.6500",
		"lat":"35.084415",
		"lon":"112.413317",
		"name":"济源439.65",
		"note":"20140815",
		"state":"河南",
		"upFreq":"431.4500"
	},
	{
		"city":"沁阳",
		"ctcss":"T88.5",
		"downFreq":"439.2500",
		"lat":"35.138595",
		"lon":"112.866917",
		"name":"沁阳439.25",
		"note":"20140815",
		"state":"河南",
		"upFreq":"434.2500"
	},
	{
		"city":"沁阳",
		"ctcss":"T88.5",
		"downFreq":"439.3500",
		"lat":"35.123530",
		"lon":"112.872101",
		"name":"沁阳439.35",
		"note":"20140815",
		"state":"河南",
		"upFreq":"434.3500"
	},
	{
		"city":"巩义",
		"ctcss":"T103.5",
		"downFreq":"439.7875",
		"lat":"34.721343",
		"lon":"113.025966",
		"name":"巩义439.7875",
		"note":"20140815",
		"state":"河南",
		"upFreq":"430.7875"
	},
	{
		"city":"偃师",
		"ctcss":"T88.5",
		"downFreq":"144.0500",
		"lat":"34.634406",
		"lon":"112.742922",
		"name":"偃师144.05",
		"note":"20140815",
		"state":"河南",
		"upFreq":"140.1500"
	},
	{
		"city":"偃师",
		"ctcss":"T88.5",
		"downFreq":"439.6500",
		"lat":"34.645160",
		"lon":"112.728869",
		"name":"偃师439.65",
		"note":"20140815",
		"state":"河南",
		"upFreq":"430.1500"
	},
	{
		"city":"洛阳吉利区",
		"ctcss":"T88.5",
		"downFreq":"437.8750",
		"lat":"34.906455",
		"lon":"112.591314",
		"name":"洛阳吉利区437.875",
		"note":"20140815",
		"state":"河南",
		"upFreq":"430.8750"
	},
	{
		"city":"大同",
		"ctcss":"T88.5",
		"downFreq":"438.5000",
		"lat":"40.105269",
		"lon":"113.310931",
		"name":"大同438.5",
		"note":"20140815",
		"state":"山西",
		"upFreq":"433.5000"
	},
	{
		"city":"晋城",
		"ctcss":"T110.9",
		"downFreq":"439.7500",
		"lat":"35.477743",
		"lon":"112.877465",
		"name":"晋城439.75",
		"note":"20140815",
		"state":"山西",
		"upFreq":"434.7500"
	},
	{
		"city":"长治",
		"ctcss":"T118.8",
		"downFreq":"157.6750",
		"lat":"36.180943",
		"lon":"113.116773",
		"name":"长治157.675",
		"note":"20140815",
		"state":"山西",
		"upFreq":"163.3750"
	},
	{
		"city":"长治",
		"ctcss":"T123",
		"downFreq":"439.2500",
		"lat":"36.198329",
		"lon":"113.101520",
		"name":"长治439.25",
		"note":"20140815",
		"state":"山西",
		"upFreq":"432.2500"
	},
	{
		"city":"河津",
		"ctcss":"T88.5",
		"downFreq":"438.4000",
		"lat":"35.648536",
		"lon":"110.722850",
		"name":"河津438.4",
		"note":"20140815",
		"state":"山西",
		"upFreq":"433.4000"
	},
	{
		"city":"泽州",
		"ctcss":"T88.5",
		"downFreq":"439.9750",
		"lat":"35.480137",
		"lon":"112.874718",
		"name":"泽州439.975",
		"note":"20140815",
		"state":"山西",
		"upFreq":"431.9750"
	},
	{
		"city":"运城",
		"ctcss":"T88.5",
		"downFreq":"438.5000",
		"lat":"35.026551",
		"lon":"110.982624",
		"name":"运城438.5",
		"note":"20140815",
		"state":"山西",
		"upFreq":"433.5000"
	},
	{
		"city":"阳泉",
		"ctcss":"T88.5",
		"downFreq":"147.8000",
		"lat":"37.882450",
		"lon":"113.576745",
		"name":"阳泉147.8",
		"note":"20140815",
		"state":"山西",
		"upFreq":"144.1000"
	},
	{
		"city":"阳泉",
		"ctcss":"T88.5",
		"downFreq":"439.7250",
		"lat":"37.863306",
		"lon":"113.591192",
		"name":"阳泉439.725",
		"note":"20140815",
		"state":"山西",
		"upFreq":"431.7250"
	},
	{
		"city":"阳城",
		"ctcss":"T100",
		"downFreq":"439.9750",
		"lat":"35.407391",
		"lon":"112.384413",
		"name":"阳城439.975",
		"note":"20140815",
		"state":"山西",
		"upFreq":"431.9750"
	},
	{
		"city":"忻州",
		"ctcss":"T88.5",
		"downFreq":"438.5000",
		"lat":"38.475541",
		"lon":"112.721961",
		"name":"忻州438.5",
		"note":"20140815",
		"state":"山西",
		"upFreq":"433.5000"
	},
	{
		"city":"绛县",
		"ctcss":"T88.5",
		"downFreq":"439.7500",
		"lat":"35.512460",
		"lon":"111.633823",
		"name":"绛县439.75",
		"note":"20140815",
		"state":"山西",
		"upFreq":"434.7500"
	},
	{
		"city":"临河",
		"ctcss":"T88.5",
		"downFreq":"439.6000",
		"lat":"40.942374",
		"lon":"107.429094",
		"name":"临河439.6",
		"note":"20140819",
		"state":"内蒙",
		"upFreq":"434.6000"
	},
	{
		"city":"包头",
		"ctcss":"T88.5",
		"downFreq":"439.6000",
		"lat":"40.664197",
		"lon":"109.852733",
		"name":"包头439.6",
		"note":"20140821",
		"state":"内蒙",
		"upFreq":"434.6000"
	},
	{
		"city":"乌海",
		"ctcss":"T88.5",
		"downFreq":"439.6500",
		"lat":"39.659441",
		"lon":"106.822390",
		"name":"乌海439.65",
		"note":"20140825",
		"state":"内蒙",
		"upFreq":"434.6500"
	},
	{
		"city":"呼和浩特",
		"ctcss":"T88.5",
		"downFreq":"439.6000",
		"lat":"40.804141",
		"lon":"111.662857",
		"name":"呼和浩特439.6",
		"note":"20140816",
		"state":"内蒙",
		"upFreq":"434.6000"
	},
	{
		"city":"呼和浩特",
		"ctcss":"T82.5",
		"downFreq":"439.5000",
		"lat":"40.848457",
		"lon":"111.674283",
		"name":"呼和浩特439.5",
		"note":"20140822",
		"state":"内蒙",
		"upFreq":"430.5000"
	},
	{
		"city":"呼和浩特",
		"ctcss":"T88.5",
		"downFreq":"439.7500",
		"lat":"40.853089",
		"lon":"111.643502",
		"name":"呼和浩特439.75",
		"note":"20140822",
		"state":"内蒙",
		"upFreq":"434.7500"
	},
	{
		"city":"呼和浩特",
		"ctcss":"T88.5",
		"downFreq":"146.2000",
		"lat":"40.834463",
		"lon":"111.663612",
		"name":"呼和浩特146.2",
		"note":"20140822",
		"state":"内蒙",
		"upFreq":"141.2000"
	},
	{
		"city":"乌兰察尔",
		"ctcss":"T88.5",
		"downFreq":"439.6000",
		"lat":"23.769381",
		"lon":"108.402259",
		"name":"乌兰察尔439.6",
		"note":"20140822",
		"state":"内蒙",
		"upFreq":"434.6000"
	},
	{
		"city":"通辽",
		"ctcss":"T88.5",
		"downFreq":"439.6000",
		"lat":"43.618206",
		"lon":"122.275314",
		"name":"通辽439.6",
		"note":"20140822",
		"state":"内蒙",
		"upFreq":"434.6000"
	},
	{
		"city":"巴彦淖尔",
		"ctcss":"T88.5",
		"downFreq":"439.6000",
		"lat":"40.786217",
		"lon":"107.429988",
		"name":"巴彦淖尔439.6",
		"note":"20140822",
		"state":"内蒙",
		"upFreq":"434.6000"
	},
	{
		"city":"绥中",
		"ctcss":"T88.5",
		"downFreq":"438.0750",
		"lat":"40.302872",
		"lon":"120.041806",
		"name":"绥中438.075",
		"note":"20140823",
		"state":"辽宁",
		"upFreq":"433.0750"
	},
	{
		"city":"兴城",
		"ctcss":"T88.5",
		"downFreq":"439.5250",
		"lat":"40.587719",
		"lon":"120.498009",
		"name":"兴城439.525",
		"note":"20140823",
		"state":"辽宁",
		"upFreq":"434.5250"
	},
	{
		"city":"沈阳",
		"ctcss":"T88.5",
		"downFreq":"439.5000",
		"lat":"41.828658",
		"lon":"123.426828",
		"name":"沈阳439.5",
		"note":"20140815",
		"state":"辽宁",
		"upFreq":"434.5000"
	},
	{
		"city":"沈阳",
		"ctcss":"T88.5",
		"downFreq":"438.5000",
		"lat":"41.829817",
		"lon":"123.431260",
		"name":"沈阳438.5",
		"note":"20140815",
		"state":"辽宁",
		"upFreq":"433.5000"
	},
	{
		"city":"盘锦",
		"ctcss":"T156.7",
		"downFreq":"439.8750",
		"lat":"41.137245",
		"lon":"122.061614",
		"name":"盘锦439.875",
		"note":"20140815",
		"state":"辽宁",
		"upFreq":"434.8750"
	},
	{
		"city":"锦州",
		"ctcss":"T88.5",
		"downFreq":"439.5000",
		"lat":"41.111048",
		"lon":"121.150923",
		"name":"锦州439.5",
		"note":"20140815",
		"state":"辽宁",
		"upFreq":"434.5000"
	},
	{
		"city":"黑山",
		"ctcss":"T88.5",
		"downFreq":"147.9650",
		"lat":"41.795102",
		"lon":"122.267340",
		"name":"黑山147.965",
		"note":"20140815",
		"state":"辽宁",
		"upFreq":"144.1650"
	},
	{
		"city":"葫芦岛",
		"ctcss":"T88.5",
		"downFreq":"439.4000",
		"lat":"40.747337",
		"lon":"120.844326",
		"name":"葫芦岛439.4",
		"note":"20140823",
		"state":"辽宁",
		"upFreq":"434.4000"
	},
	{
		"city":"调兵山",
		"ctcss":"T97.4",
		"downFreq":"439.0000",
		"lat":"42.427191",
		"lon":"123.608923",
		"name":"调兵山439",
		"note":"20140815",
		"state":"辽宁",
		"upFreq":"434.0000"
	},
	{
		"city":"调兵山",
		"ctcss":"T100",
		"downFreq":"147.9750",
		"lat":"42.467594",
		"lon":"123.589589",
		"name":"调兵山147.975",
		"note":"20140815",
		"state":"辽宁",
		"upFreq":"144.1000"
	},
	{
		"city":"丹东",
		"ctcss":"T88.5",
		"downFreq":"439.5000",
		"lat":"40.120548",
		"lon":"124.355903",
		"name":"丹东439.5",
		"note":"20140815",
		"state":"辽宁",
		"upFreq":"434.5000"
	},
	{
		"city":"丹东",
		"ctcss":"T88.5",
		"downFreq":"147.9000",
		"lat":"40.116297",
		"lon":"124.355950",
		"name":"丹东147.9",
		"note":"20140815",
		"state":"辽宁",
		"upFreq":"144.1000"
	},
	{
		"city":"大石桥",
		"ctcss":"T88.5",
		"downFreq":"439.5000",
		"lat":"40.643434",
		"lon":"122.549373",
		"name":"大石桥439.5",
		"note":"20140815",
		"state":"辽宁",
		"upFreq":"434.5000"
	},
	{
		"city":"大连",
		"ctcss":"T88.5",
		"downFreq":"147.9750",
		"lat":"38.945551",
		"lon":"121.571078",
		"name":"大连147.975",
		"note":"20140815",
		"state":"辽宁",
		"upFreq":"144.0750"
	},
	{
		"city":"朝阳",
		"ctcss":"T88.5",
		"downFreq":"147.9000",
		"lat":"41.555617",
		"lon":"120.455228",
		"name":"朝阳147.9",
		"note":"20140815",
		"state":"辽宁",
		"upFreq":"144.1000"
	},
	{
		"city":"本溪",
		"ctcss":"T131.8",
		"downFreq":"439.2750",
		"lat":"41.317495",
		"lon":"123.792196",
		"name":"本溪439.275",
		"note":"20140815",
		"state":"辽宁",
		"upFreq":"431.2750"
	},
	{
		"city":"鞍山",
		"ctcss":"T88.5",
		"downFreq":"439.3000",
		"lat":"41.138120",
		"lon":"123.008881",
		"name":"鞍山439.3",
		"note":"20140815",
		"state":"辽宁",
		"upFreq":"434.3000"
	},
	{
		"city":"盘锦",
		"ctcss":"T88.5",
		"downFreq":"439.9500",
		"lat":"41.141550",
		"lon":"122.056617",
		"name":"盘锦439.95",
		"note":"20140815",
		"state":"辽宁",
		"upFreq":"434.9500"
	},
	{
		"city":"盘锦",
		"ctcss":"T88.5",
		"downFreq":"439.8750",
		"lat":"41.133534",
		"lon":"122.056779",
		"name":"盘锦439.875",
		"note":"20140815",
		"state":"辽宁",
		"upFreq":"434.8750"
	},
	{
		"city":"盘锦",
		"ctcss":"T88.5",
		"downFreq":"145.4950",
		"lat":"41.157107",
		"lon":"122.077247",
		"name":"盘锦145.495",
		"note":"20140815",
		"state":"辽宁",
		"upFreq":"144.8950"
	},
	{
		"city":"银川",
		"ctcss":"T88.5",
		"downFreq":"439.5500",
		"lat":"38.488880",
		"lon":"106.231019",
		"name":"银川439.55",
		"note":"20140815",
		"state":"宁夏",
		"upFreq":"431.5500"
	},
	{
		"city":"银川",
		"ctcss":"T88.5",
		"downFreq":"439.5000",
		"lat":"38.526855",
		"lon":"106.203786",
		"name":"银川439.5",
		"note":"20140815",
		"state":"宁夏",
		"upFreq":"430.5000"
	},
	{
		"city":"大漠",
		"ctcss":"T88.5",
		"downFreq":"439.6500",
		"lat":"37.341406",
		"lon":"106.162921",
		"name":"大漠439.65",
		"note":"20140815",
		"state":"宁夏",
		"upFreq":"431.6500"
	},
	{
		"city":"吴忠",
		"ctcss":"T88.5",
		"downFreq":"439.9900",
		"lat":"38.013111",
		"lon":"106.221403",
		"name":"吴忠439.99",
		"note":"20140815",
		"state":"宁夏",
		"upFreq":"430.0900"
	},
	{
		"city":"石嘴山",
		"ctcss":"T88.5",
		"downFreq":"431.7500",
		"lat":"38.997026",
		"lon":"106.385491",
		"name":"石嘴山431.75",
		"note":"20140815",
		"state":"宁夏",
		"upFreq":"439.7500"
	},
	{
		"city":"格尔木",
		"ctcss":"T88.5",
		"downFreq":"147.9500",
		"lat":"35.581345",
		"lon":"92.686912",
		"name":"格尔木147.95",
		"note":"20140815",
		"state":"青海",
		"upFreq":"144.1500"
	},
	{
		"city":"西藏",
		"ctcss":"T88.5",
		"downFreq":"439.8870",
		"lat":"31.388490",
		"lon":"89.154755",
		"name":"西藏439.887",
		"note":"20140815",
		"state":"西藏",
		"upFreq":"430.8870"
	},
	{
		"city":"乌鲁木齐",
		"ctcss":"T250.3",
		"downFreq":"144.7000",
		"lat":"43.824909",
		"lon":"87.540739",
		"name":"乌鲁木齐144.7",
		"note":"20140815",
		"state":"新疆",
		"upFreq":"144.1000"
	},
	{
		"city":"乌鲁木齐",
		"ctcss":"T0",
		"downFreq":"144.7000",
		"lat":"43.824962",
		"lon":"87.557443",
		"name":"乌鲁木齐144.7",
		"note":"(直频守候)",
		"state":"新疆",
		"upFreq":"144.1000"
	},
	{
		"city":"乌鲁木齐",
		"ctcss":"T0",
		"downFreq":"144.9750",
		"lat":"43.827921",
		"lon":"87.553152",
		"name":"乌鲁木齐144.975",
		"note":"(直频守候)",
		"state":"新疆",
		"upFreq":"144.9750"
	},
	{
		"city":"乌鲁木齐",
		"ctcss":"T0",
		"downFreq":"438.9750",
		"lat":"43.852774",
		"lon":"87.572319",
		"name":"乌鲁木齐438.975",
		"note":"(直频守候)",
		"state":"新疆",
		"upFreq":"438.9750"
	}
]